lon,lat,campground_code,campground_name,type,phone_number,dates_open,comments,num_campsite,elevation_ft,amenities,state,distance_to_town,bearing_to_town,nearest_town,toilets,drinking_water,reservations,showers,dist_home_km
-122.48,38.002,CHIC,China Camp State Park,SP,415-456-0766,all year,long walk to sites,NA,NA,NH ND SH RS,CA,3.4,NE,San Rafael,NA,NA,TRUE,TRUE,25.76431768502715
-122.105,37.759,ANTH,Anthony Chabot Regional Park,CP,888-327-2757,NA,NA,NA,NA,E DP FT DW SH,CA,9.6,E,Oakland,flush,TRUE,NA,TRUE,27.7578294787728
-122.445,37.466,HALM,Half Moon Bay State Beach,SP,650-726-8819,all year,NA,NA,NA,NH DP NS RS,CA,0.9,W,Half Moon Bay,NA,NA,TRUE,FALSE,34.35900739989536
-122.739,38.024,SAMU,Samuel Taylor State Park,SP,415-488-9897,mid may-late dec,NA,60,NA,NH DP 31ft FT DW SH RS,CA,2.8,W,Lagunitas,flush,TRUE,TRUE,TRUE,39.4283554919434
-121.933,37.851,MTDI,Mt. Diablo State Park,SP,925-837-2525,all year,3 campgrounds,84,1644,NH 20ft FT DW RS,CA,8.3,SE,Walnut Creek,flush,TRUE,TRUE,NA,43.65487163863168
-121.891,37.707,CAMP,Camp Parks Military,MIL,NA,NA,military only - do not use our lat/lon - contact them for directions and info,NA,NA,NH ND NS RS,CA,2.5,E,Dublin,NA,NA,TRUE,FALSE,47.17919453102341
-121.889,37.659,ALAM,Alameda County Fairgrounds RV,CP,NA,NA,NA,NA,NA,E,CA,0.8,W,Pleasanton,NA,NA,NA,NA,48.50175360864728
-122.294,37.277,SANM,San Mateo Memorial County Park,CP,650-879-0238,all year,NA,156,NA,NH DP 35ft FT DW SH,CA,5.1,E,Pescadero,flush,TRUE,NA,TRUE,56.36144544626817
-122.246,38.276,SKYL,Skyline Wilderness County Park,CP,707-252-0481,NA,NA,59,NA,E DP DW SH,CA,2.7,SE,Napa,NA,TRUE,NA,TRUE,57.6666400864611
-121.821,38.011,CONT,Contra Costa County Fair RV Park,CP,925-757-4400,all year,NA,24,NA,E ND DW SH,CA,0.9,NW,Antioch,NA,TRUE,NA,TRUE,58.79789916260038
-121.835,37.515,SUNO,Sunol Regional Wilderness,CP,510-544-3249,NA,closed 2011-2015,NA,NA,NH ND NW NS RS L$,CA,10.4,S,Pleasanton,NA,FALSE,TRUE,FALSE,59.0943708537537
-122.278,38.296,NAPV,Napa Valley Expo,CP,707-253-4900,NA,RV park,NA,NA,WES DP FT DW SH,CA,0.5,E,Napa,flush,TRUE,NA,TRUE,59.15766523156249
-122.212,37.262,PORR,Portola Redwoods State Park,SP,650-948-9098,early mar-late dec,steep windy roads,53,NA,NH ND 24ft FT DW SH RS,CA,5.2,SE,Lahonda,flush,TRUE,TRUE,TRUE,59.80524810840423
-122.326,37.232,BUTA,Butano State Park,SP,650-879-2040,mid may-late dec,NA,39,NA,NH ND 24ft FT DW NS RS,CA,3.5,SE,Pescadero,flush,TRUE,TRUE,FALSE,60.81821403355482
-122.783,38.247,PETA,Petaluma Lake Area Military,MIL,707-765-7341,NA,military only - do not use our lat/lon - contact them for directions and info,NA,NA,RS,CA,8.0,W,Petaluma,NA,NA,TRUE,NA,61.363674336730156
-122.064,37.237,SANB,Sanborn - Skyline County Park,CP,NA,NA,NA,NA,NA,E DP 31ft,CA,5.6,W,Los Gatos,NA,NA,NA,NA,67.4650237124924
-121.688,37.57,DELV,Del Valle Regional Park,CP,888-327-2757,NA,NA,150,NA,NH DP FT DW SH,CA,8.9,SE,Livermore,flush,TRUE,NA,TRUE,68.41549929014175
-121.954,38.271,TRAV,Travis AFB Military,MIL,707-424-3583,NA,military only - do not use our lat/lon - contact them for directions and info,NA,NA,RS,CA,NA,NA,NA,NA,NA,TRUE,NA,68.57178624507523
-122.221,37.169,BIG3,Big Basin Redwoods State Park,SP,831-338-8860,early mar-late dec,NA,102,NA,NH DP 27ft FT DW SH RS,CA,6.2,NW,Boulder Creek,flush,TRUE,TRUE,TRUE,69.49908401560741
-121.694,38.111,BRAI,Brannan Island State Rec Area,SRA,916-777-6671,all year,NA,127,NA,E DP 36ft FT DW SH RS,CA,3.1,S,Rio Vista,flush,TRUE,TRUE,TRUE,73.87401586918936
-122.539,38.442,SUGL,Sugarloaf Ridge State Park,SP,707-833-5712,all year,NA,49,NA,NH DP 27ft FT DW NS RS,CA,2.0,N,Kenwood,flush,TRUE,TRUE,FALSE,74.78634555350439
-121.694,38.149,SANP,Sandy Beach County Park,CP,707-374-2097,NA,NA,NA,NA,E DP DW SH,CA,0.5,S,Rio Vista,NA,TRUE,NA,TRUE,76.07737071619378
-122.699,38.425,SONF,Sonoma County Fairgrounds RV Park,CP,707-293-8410,NA,NA,NA,NA,E DW SH,CA,1.4,SE,Santa Rosa,NA,TRUE,NA,TRUE,76.21356938609466
-122.653,38.448,SPRL,Spring Lake Regional Park,CP,707-565-2267,NA,NA,NA,NA,NH DP DW SH,CA,3.3,E,Santa Rosa,NA,TRUE,NA,TRUE,77.47090154099784
-121.722,37.342,GRAC,Grant County Park,CP,408-274-6121,NA,NA,NA,1640,NH 30ft DW SH,CA,9.5,E,San Jose,NA,TRUE,NA,TRUE,78.13721465814773
-121.529,37.628,CARN,Carnegie State Vehicle Rec Area,SP,925-447-9027,NA,off road vehicle area,23,NA,NH ND FT DW NS NR L$,CA,9.6,SW,Tracy,flush,TRUE,FALSE,FALSE,80.19656153508595
-123.042,38.315,DORN,Doran Regional Park,CP,NA,NA,NA,NA,NA,NH DP DW SH,CA,1.3,S,Bodega Bay,NA,TRUE,NA,TRUE,81.12108005675918
-123.055,38.323,WERP,Westside Regional Park,CP,707-875-3540,NA,NA,NA,NA,NH DP DW SH,CA,0.8,SW,Bodega Bay,NA,TRUE,NA,TRUE,82.5443912944556
-122.201,38.509,LUPI,Lupine Shores - Lake Berryessa - USBR,BOR,707-966-9088,NA,NA,NA,NA,NA,CA,15.3,N,Napa,NA,NA,NA,NA,83.70340834025203
-123.054,38.341,BODE,Bodega Dunes - Sonoma Coast State Park,SP,707-875-3483,all year,NA,98,NA,NH DP 31ft FT DW SH RS,CA,0.6,NW,Bodega Bay,flush,TRUE,TRUE,TRUE,83.96506553516055
-122.213,38.522,FOOT,Foothill Pines - Lake Berryessa - USBR,BOR,707-966-9088,NA,NA,NA,NA,NA,CA,16.0,N,Napa,NA,NA,NA,NA,84.87808673166182
-122.535,38.546,BOTH,Bothe - Napa Valley State Park,SP,707-942-4575,all year,NA,NA,NA,NH 31ft FT DW SH RS,CA,3.3,SE,Calistoga,flush,TRUE,TRUE,TRUE,86.18922389961509
-122.029,38.493,LAKU,Lake Solano County Park,CP,530-795-2990,NA,NA,NA,NA,E DP DW SH,CA,3.8,SW,Winters,NA,TRUE,NA,TRUE,86.74613852907106
-122.041,37.031,HENR,Henry Cowell Redwoods State Park,SP,831-438-2396,early mar-late dec,NA,113,NA,NH ND 35ft FT DW SH RS,CA,2.0,SW,Scotts Valley,flush,TRUE,TRUE,TRUE,89.1005235949662
-121.489,38.126,WEST,Westgate Landing Regional Park,CP,209-953-8800,NA,NA,14,NA,NH ND NS RS,CA,11.8,W,Lodi,NA,NA,TRUE,FALSE,90.58487708650067
-122.586,38.583,NAPF,Napa County Fairgrounds,CP,707-942-5111,NA,NA,NA,NA,E DP SH,CA,0.4,NW,Calistoga,NA,NA,NA,TRUE,90.87892783405992
-123.094,38.4,WRIB,Wrights Beach - Sonoma Coast State Park,SP,707-875-3483,all year,NA,30,NA,NH ND 27ft FT DW NS RS,CA,5.3,NW,Bodega Bay,flush,TRUE,TRUE,FALSE,91.19532170479367
-122.267,38.599,MANZ,Manzanita Canyon - Lake Berryessa - USBR,BOR,707-966-9088,NA,NA,NA,NA,NA,CA,20.9,N,Napa,NA,NA,NA,NA,92.44432925944679
-121.793,37.085,UVAS,Uvas Canyon County Park,CP,408-779-9232,NA,NA,25,NA,NH ND FT DW NS L$,CA,8.3,W,Morgan Hill,flush,TRUE,NA,FALSE,94.53282142545554
-122.288,38.625,CHAP,Chaparral Cove - Lake Berryessa - USBR,BOR,707-966-9088,NA,NA,NA,NA,NA,CA,22.6,N,Napa,NA,NA,NA,NA,95.06065607050029
-121.998,36.973,SACP,Santa Cruz Port District,CP,831-475-3279,NA,NA,12,NA,WES DP NS,CA,1.8,E,Santa Cruz,NA,NA,NA,FALSE,96.50826254969718
-121.937,36.983,NEWB,New Brighton State Beach,SP,831-464-6330,all year,NA,102,NA,WES DP 36ft FT DW SH RS,CA,1.0,NE,Capitola,flush,TRUE,TRUE,TRUE,97.72310737652808
-121.311,37.83,DOSR,Dos Reis,CP,209-953-8800,NA,NA,NA,NA,E DP 60ft FT DW SH,CA,1.9,W,Lathrop,flush,TRUE,NA,TRUE,97.80488686920604
-121.919,36.974,SEAC,Seacliff State Beach,SB,831-685-6442,all year,NA,30,NA,NH ND 40ft FT DW SH RS,CA,1.1,W,Aptos,flush,TRUE,TRUE,TRUE,99.32453795810719
-121.373,37.42,FRAN,Frank Raines Regional Park,CP,209-525-6750,NA,NA,34,NA,E DP FT DW SH L$,CA,NA,NA,Patterson,flush,TRUE,NA,TRUE,100.45219248653336
-121.546,37.188,HENC,Henry Coe State Park,SP,408-779-2728,all year,NA,20,2759,NH ND 22ft VT DW NS RS,CA,7.2,NE,Morgan Hill,vault,TRUE,TRUE,FALSE,101.04616755823979
-121.269,37.854,SHAR,Sharpe RV Military,MIL,209-639-1016,NA,closing 9/2013 - military only - do not use our lat/lon - contact them for directions and info,NA,NA,RS,CA,2.1,S,French Camp,NA,NA,TRUE,NA,101.67561683269119
-123.011,38.566,AUST,Austin Creek State Rec Area,SRA,707-869-2015,NA,NA,NA,NA,20ft FT DW NR,CA,4.5,N,Guerneville,flush,TRUE,FALSE,NA,101.97206355269445
-121.702,37.001,MOUN,Mount Madonna,CP,408-355-2201,NA,NA,111,NA,E DP 31ft FT DW,CA,7.4,W,Gilroy,flush,TRUE,NA,NA,106.83311736857797
-121.853,36.92,MANR,Manresa State Beach,SP,831-761-1795,early mar-late dec,NA,64,NA,NH ND FT DW SH RS,CA,4.7,SE,Aptos,flush,TRUE,TRUE,TRUE,107.33485486749473
-123.228,38.508,FORR,Fort Ross State Park,SP,707-847-3286,NA,NA,NA,NA,NR,CA,15.5,NW,Bodega Bay,NA,NA,FALSE,NA,107.91689557967963
-121.767,36.95,PINT,Pinto Lake Park,CP,831-722-8129,NA,NA,28,NA,WES DP NS,CA,2.8,N,Watsonville,NA,NA,NA,FALSE,108.26643782222108
-121.183,37.7,CASW,Caswell Memorial State Park,SP,209-599-3810,all year,NA,65,NA,NH ND 24ft FT DW SH RS,CA,3.8,SW,Ripon,flush,TRUE,TRUE,TRUE,109.29787829255409
-121.832,36.899,SUN3,Sunset State Beach,SB,831-763-7062,all year,NA,90,NA,NH ND 31ft DW SH RS,CA,4.2,W,Watsonville,NA,TRUE,TRUE,TRUE,110.26966889615409
-121.528,37.078,COYO,Coyote Lake County Park,CP,408-842-7800,NA,NA,74,NA,NH ND 31ft FT DW NS L$,CA,5.4,NE,Gilroy,flush,TRUE,NA,FALSE,110.4866119776308
-121.765,38.667,YOLO,Yolo County Fair RV,CP,530-402-2222,NA,NA,NA,NA,E DP NS,CA,0.9,SE,Woodland,NA,NA,NA,FALSE,114.40854539233096
-122.375,38.809,LOWH,Lower Hunting Creek  - Knoxville Rec Area,BLM,NA,NA,NA,5,NA,NH ND VT NW NS NR,CA,17.0,SE,Clearlake,vault,FALSE,FALSE,FALSE,114.85287952598817
-123.296,38.548,STIL,Stillwater Cove Regional Park,CP,707-847-3245,NA,NA,23,NA,NH DP 20ft FT DW SH,CA,11.9,NW,Jenner,flush,TRUE,NA,TRUE,115.17705221367827
-123.324,38.569,SALT,Salt Point State Park,SP,707-847-3221,all year,NA,30,NA,NH ND 31ft FT DW NS RS,CA,14.0,NW,Jenner,flush,TRUE,TRUE,FALSE,118.54324142333834
-122.696,38.83,CALS,Calso - Boggs Mountain Demo Forest,SF,707-928-4378,NA,NA,13,3253,NH ND PT NW NS NR,CA,NA,NA,NA,pit,FALSE,FALSE,FALSE,119.59116405607826
-123.072,38.727,LIBE,Liberty Glen,NA,NA,NA,NA,NA,NA,NH DP DW SH RS,CA,13.6,NW,Healdsburg,NA,TRUE,TRUE,TRUE,120.13343296492091
-121.434,38.595,CALX,Cal Expo RV Park,CP,916-263-3187,NA,NA,NA,NA,E DW SH,CA,3.4,E,Sacramento,NA,TRUE,NA,TRUE,125.45711827812455
-123.024,38.804,CLOF,Cloverdale Citrus Fair,CP,707-894-3992,NA,NA,NA,NA,E DP DW SH,CA,0.4,W,Cloverdale,NA,TRUE,NA,TRUE,125.88303553956855
-122.319,38.916,CACC,Cache Creek Canyon County Park,CP,530-666-8115,NA,NA,45,NA,NH DP NS,CA,33.7,NW,Woodland,NA,NA,NA,FALSE,126.96924811377177
-121.094,38.332,RANC,Rancho Seco,UTIL,NA,early apr-late oct,NA,30,NA,E DP DW SH L$,CA,8.6,E,Herald,NA,TRUE,NA,TRUE,131.74061080131472
-121.094,38.332,RACO,Rancho Seco Rec Area,UTIL,209-748-2318,NA,NA,NA,NA,E DP SH,CA,8.6,E,Herald,NA,NA,NA,TRUE,131.74061080131472
-120.874,37.843,WOOR,Woodward Reservoir,CP,209-847-3304,NA,NA,155,NA,E DP FT DW SH,CA,5.5,N,Oakdale,flush,TRUE,NA,TRUE,136.29584749671272
-120.959,37.36,GEOR,George Hatfield State Rec Area,SRA,209-632-1852,mid may-late dec,NA,15,NA,NH ND FT DW NS RS,CA,6.7,SW,Hilmar,flush,TRUE,TRUE,FALSE,136.9898099794904
-121.911,36.6,VETE,Veterans Memorial Park,CP,831-646-3865,NA,NA,NA,NA,NH DP 21ft,CA,0.9,W,Monterey,NA,NA,NA,NA,137.98418017785687
-121.502,36.76,FREP,Fremont Peak State Park,SP,831-623-4255,mid may-late dec,NA,21,2776,NH ND 25ft FT DW NS RS,CA,6.2,S,San Juan Bautista,flush,TRUE,TRUE,FALSE,138.95280249479282
-121.862,36.595,MONF,Monterey County Fairgrounds RV,CP,831-657-9347,NA,NA,NA,NA,WES DW SH,CA,1.8,E,Monterey,NA,TRUE,NA,TRUE,139.98749471222547
-121.861,36.59,MONT,Monterey Pines RV Military,MIL,831-656-7563,NA,military only - do not use our lat/lon - contact them for directions and info,NA,NA,RS,CA,2.0,E,Monterey,NA,NA,TRUE,NA,140.5385175066799
-122.814,39.008,CLEA,Clear Lake State Park,SP,707-279-4293,all year,NA,149,NA,NH DP 35ft FT DW SH RS,CA,2.5,NE,Kelseyville,flush,TRUE,TRUE,TRUE,141.1528828550401
-121.062,37.084,SANL,San Luis Creek - San Luis Reservoir,SRA,209-826-1197,all year,NA,53,NA,NH DP 35ft FT DW SH RS,CA,NA,NA,Gustine,flush,TRUE,TRUE,TRUE,142.52397296537768
-121.412,36.768,HOLL,Hollister Hills State Veh Rec Area,SP,831-637-3874,NA,7 campgrounds - off road veh,125,NA,NH ND FT DW SH NR L$,CA,5.8,S,Hollister,flush,TRUE,FALSE,TRUE,143.07558090890254
-122.509,39.07,BLUK,Blue Oaks,BLM,NA,NA,unknown facil,6,1768,NH ND VT NW NS NR N$,CA,20.1,W,Williams,vault,FALSE,FALSE,FALSE,143.9746675846158
-123.516,38.756,GUAL,Gualala Point Regional Park,CP,707-785-2377,NA,NA,NA,NA,NH DP DW SH,CA,1.0,SE,Gualala,NA,TRUE,NA,TRUE,145.15253468846765
-121.755,36.579,LAGS,Laguna Seca,CP,831-755-4899,NA,NA,172,NA,E DP FT DW SH,CA,8.8,SW,Salinas,flush,TRUE,NA,TRUE,145.24478730005418
-121.063,37.031,BASA,Basalt State Rec Area - San Luis Reservoir,SRA,209-826-1197,NA,NA,79,NA,NH ND 30ft FT DW SH RS,CA,16.0,S,Gustine,flush,TRUE,TRUE,TRUE,145.73451505065907
-121.029,37.065,MEDE,Medeiros State Rec Area - San Luis Reservoir,SRA,209-826-1197,all year,NA,NA,NA,NH ND PT DW NS NR,CA,13.4,S,Gustine,pit,TRUE,FALSE,FALSE,146.13350157330513
-121.295,38.759,PLAF,Placer County Fair RV,CP,916-786-2023,NA,NA,NA,NA,E DP DW SH,CA,0.6,NW,Roseville,NA,TRUE,NA,TRUE,147.01818362243128
-120.798,38.177,ACOR,Acorn - New Hogan Lake,COE,209-772-1343,all year,NA,NA,NA,NH DP FT DW SH RS PA,CA,2.0,SE,Valley Springs,flush,TRUE,TRUE,TRUE,149.28334718472334
-120.79,38.181,OAKK,Oak Knoll - New Hogan Lake,COE,209-772-1343,mid may-late aug,NA,NA,NA,NH DP NS RS PA L$,CA,2.2,E,Valley Springs,NA,NA,TRUE,FALSE,150.0832318803344
-121.172,38.719,BEAP,Beals Point - Folsom Lake State Rec Area,SRA,916-988-0205,NA,NA,69,NA,E DP 31ft FT DW SH RS,CA,2.9,N,Folsom,flush,TRUE,TRUE,TRUE,151.34256514534843
-123.05,39.056,COWM,Cow Mountain Rec Area,BLM,707-468-4000,NA,narrow roads - no RVs - desert terrain- 5 areas,NA,3025,NH ND VT NW NS NR N$,CA,10.7,SE,Ukiah,vault,FALSE,FALSE,FALSE,152.4982308732458
-120.659,37.659,MODE,Modesto Reservoir,CP,209-874-9540,NA,NA,150,NA,E DP 45ft FT DW SH,CA,5.7,E,Waterford,flush,TRUE,NA,TRUE,155.74247440553344
-120.711,37.416,MCCO,McConnell State Rec Area,SRA,209-394-7755,all year,NA,21,NA,NH ND 30ft FT DW SH RS,CA,2.5,S,Ballico,flush,TRUE,TRUE,TRUE,156.04078043009235
-120.939,36.987,LOSB,Los Banos Creek - San Luis Reservoir,SRA,209-826-1197,all year,NA,15,NA,NH DP 30ft DW SH NR,CA,19.0,S,Gustine,NA,TRUE,FALSE,TRUE,157.59448837537101
-122.018,39.205,COLF,Colusa County Fairgrounds,CP,530-458-2641,NA,NA,38,NA,E DP DW SH,CA,0.8,SW,Colusa,NA,TRUE,NA,TRUE,162.5656252113917
-121.075,38.789,PENS,Peninsula - Folsom Lake State Rec Area,SRA,916-988-0205,NA,NA,100,NA,NH DP FT DW SH RS,CA,9.4,NE,Folsom,flush,TRUE,TRUE,TRUE,162.80812549543782
-120.581,37.63,TURL,Turlock Lake State Rec Area,SRA,209-874-2056,mid may-late dec,NA,66,NA,NH ND 27ft FT DW SH RS,CA,6.8,W,La Grange,flush,TRUE,TRUE,TRUE,162.91447103018086
-122.015,39.218,COLU,Colusa - Sacramento River State Rec Area,SRA,530-458-4927,mid may-late dec,NA,14,NA,NH DP 27ft FT DW SH RS,CA,0.4,NW,Colusa,flush,TRUE,TRUE,TRUE,164.03068992910713
-121.813,36.354,BOTT,Bottchers Gap,NF,831-385-5434/805-961-5778,NA,NA,11,1978,NH ND VT DW NS NR L$,CA,15.2,SE,Carmel,vault,TRUE,FALSE,FALSE,166.65606244152517
-122.699,39.264,CEDA,Cedar Camp,NF,530-934-1250/530-934-3316,NA,NA,6,4324,NH ND VT NW NS NR,CA,11.2,SW,Stonyford,vault,FALSE,FALSE,FALSE,167.0880248656199
-120.541,38.009,GLOI,Gloryhole Rec Area- Ironhorse - USBR,BOR,209-536-9094,all year,some SFW sites may not have tables,300,NA,NH DP DW NS RS,CA,4.1,S,Angels Camp,NA,TRUE,TRUE,FALSE,167.25384499755506
-120.535,37.985,IRON,Ironhorse- Glory Hole Area - New Melones Lake,BOR,209-536-9094,NA,NA,90,NA,NH ND FT DW SH RS,CA,NA,NA,Angels Camp,flush,TRUE,TRUE,TRUE,167.41002248714818
-120.538,38.004,BIGO,Big Oak - Glory Hole Area - New Melones Lake,BOR,209-536-9094,NA,NA,55,NA,NH ND FT DW SH RS,CA,NA,NA,Angels Camp,flush,TRUE,TRUE,TRUE,167.43487300583467
-122.576,39.286,LITS,Little Stony,NF,530-934-1250/530-934-3316,NA,RVs not recommended,13,NA,NH ND NS NR,CA,6.4,S,Stonyford,NA,NA,FALSE,FALSE,168.29677367452163
-120.52,37.978,ACOR,Acorn - Tuttletown Area - New Melones Lake,BOR,209-536-9094,NA,NA,69,NA,FT DW RS,CA,NA,NA,Sonora,flush,TRUE,TRUE,NA,168.61903656090033
-123.206,39.163,REDW,Redwood Empire Fair RV Park,CP,707-462-3884,NA,RV Parking,NA,NA,E DP DW SH,CA,NA,NA,Ukiah,NA,TRUE,NA,TRUE,168.68417142267754
-120.516,37.982,CHAM,Chamise - Tuttletown Area - New Melones Lake,BOR,209-536-9094,NA,mostly walk in sites,36,NA,NH DP FT DW SH RS,CA,NA,NA,Columbia,flush,TRUE,TRUE,TRUE,169.02309520467034
-120.522,38.044,FROV,Frogtown RV Park,CP,209-736-4237,NA,NA,NA,1544,E DP DW SH,CA,1.9,SE,Angels Camp,NA,TRUE,NA,TRUE,169.50702656290338
-120.507,37.986,TUTC,Tuttletown Rec Area - Chamise,BOR,209-536-9094,all year,NA,60,NA,NH DP DW SH RS PA,CA,6.7,SW,Columbia,NA,TRUE,TRUE,TRUE,169.86368153969576
-120.505,37.978,MANZ,Manzanita - Tuttletown Area - New Melones Lake,BOR,209-536-9094,all year,NA,60,NA,NH DP DW SH RS PA,CA,7.0,SW,Columbia,NA,TRUE,TRUE,TRUE,169.92690527132433
-122.884,39.266,DEER,Deer Valley,NF,707-275-2361/530-934-3316,NA,NA,13,3645,NH ND NS NR,CA,7.1,N,Upper Lake,NA,NA,FALSE,FALSE,170.4075726719247
-122.95,39.253,MIDC,Middle Creek,NF,707-275-2361/530-934-3316,NA,NA,41,NA,NH ND 41ft VT DW NS NR,CA,6.4,N,Upper Lake,vault,TRUE,FALSE,FALSE,170.47839978352542
-122.645,39.309,OLDM,Old Mill,NF,530-934-1250/530-934-3316,NA,NA,11,3724,NH ND 16ft VT NW NS NR,CA,7.1,SW,Stonyford,vault,FALSE,FALSE,FALSE,171.42732525747113
-122.708,39.303,MAIN,Main Letts,NF,530-934-1250/530-934-3316,NA,NA,18,4557,NH ND NS NR,CA,10.0,SW,Stonyford,NA,NA,FALSE,FALSE,171.48506427509946
-120.643,38.421,INDG,Indian Grinding Rock State Park,SP,209-296-7488,NA,NA,22,2457,NH ND 27ft FT DW SH NR,CA,1.0,NE,Pine Grove,flush,TRUE,FALSE,TRUE,171.52524778131007
-122.712,39.308,SADD,Saddle Camp Loop,NF,530-934-1250/530-934-3316,NA,NA,9,4551,NR,CA,10.1,SW,Stonyford,NA,NA,FALSE,NA,172.085394308199
-122.716,39.309,SPIL,Spillway - Letts Lake,NF,530-934-1250/530-934-3316,NA,NA,9,4518,NR,CA,10.2,SW,Stonyford,NA,NA,FALSE,NA,172.24716130872557
-123.184,39.206,CHEK,Chekaka,COE,707-467-4200,early may-late dec,NA,NA,NA,NH ND NS RS PA,CA,4.1,N,Ukiah,NA,NA,TRUE,FALSE,172.29552276312666
-122.712,39.31,STIR,Stirrup - Letts Lake,NF,530-934-1250/530-934-3316,NA,NA,28,4413,NR,CA,10.0,SW,Stonyford,NA,NA,FALSE,NA,172.30493428729503
-123.485,39.084,HEND,Hendy Woods State Park,SP,707-895-3141,mid may-late dec,No RVs,92,NA,E DP 35ft FT DW SH RS,CA,22.8,SE,Mendocino,flush,TRUE,TRUE,TRUE,172.54891598660384
-120.463,37.664,BLUO,Blue Oaks,NA,NA,NA,NA,172,NA,FT DW,CA,29.3,E,Modesto,flush,TRUE,NA,NA,172.92341522857396
-122.706,39.318,MILV,Mill Valley,NF,530-934-1250/530-934-3316,NA,NA,15,4147,NH ND 32ft VT DW NS NR,CA,9.5,SW,Stonyford,vault,TRUE,FALSE,FALSE,173.10690457168633
-121.833,36.283,ANDR,Andrew Molera State Park,SP,831-667-2315,NA,long walk to sites,24,NA,NH NR,CA,1.7,NW,Big Sur,NA,NA,FALSE,NA,173.5939683807524
-123.166,39.23,BUSH,Bushay,COE,707-467-4200,early may-late aug,NA,NA,NA,NH DP SH RS PA,CA,6.0,N,Ukiah,NA,NA,TRUE,TRUE,174.15786541358653
-123.699,38.981,MANC,Manchester State Park,SP,707-882-2463,mid may-late dec,NA,48,NA,NH DP 30ft DW NS RS,CA,1.0,NW,Manchester;,NA,TRUE,TRUE,FALSE,174.42608225369824
-122.52,39.349,EAST,East Park Reservoir - USBR,BOR,530--968-5274,all year,some SFW sites may not have tables,NA,NA,NH ND NW NS NR N$,CA,3.7,NW,Lodoga,NA,FALSE,FALSE,FALSE,174.95616800533048
-122.702,39.336,DIXG,Dixie Glade,NF,NA,NA,horse camp,7,3700,NH ND VT DW NS NR L$,CA,8.9,W,Stonyford,vault,TRUE,FALSE,FALSE,175.0347610671613
-123.178,39.235,KYEN,Kyen,COE,707-467-4200,NA,NA,NA,NA,NH DP DW SH NR,CA,6.1,N,Ukiah,NA,TRUE,FALSE,TRUE,175.06485105446453
-122.93,39.301,PENN,Penny Pines,NF,707-275-2361/530-934-3316,NA,NA,10,3665,NH ND VT NW NS NR L$,CA,9.5,N,Upper Lake,vault,FALSE,FALSE,FALSE,175.15797658350667
-120.433,37.705,BLOK,Blue Oaks - Don Pedro Rec Area,CP,NA,NA,NA,NA,NA,WE DP DW SH,CA,3.3,NE,La Grange,NA,TRUE,NA,TRUE,175.25319205632331
-121.385,39.13,BEAL,Beale AFB Military,MIL,530-634-3382,NA,voted best - military only - do not use our lat/lon - contact them for directions and info,NA,NA,RS,CA,1.7,NW,Beale Afb,NA,NA,TRUE,NA,175.4385485727629
-122.837,39.322,BEAC,Bear Creek,NF,707-275-2361/530-934-3316,NA,NA,16,2260,NH ND VT NW NS NR N$,CA,11.6,N,Upper Lake,vault,FALSE,FALSE,FALSE,175.55403281595775
-122.654,39.356,MILC,Mill Creek,NF,530-934-1250/530-934-3316,NA,NA,5,1634,NH ND NS NR,CA,6.0,W,Stonyford,NA,NA,FALSE,FALSE,176.70021688308026
-122.653,39.362,SOU1,South Fork,NF,530-934-1250/530-934-3316,NA,NA,5,1617,NH ND VT NW NS NR,CA,5.8,W,Stonyford,vault,FALSE,FALSE,FALSE,177.35177106621273
-122.654,39.362,FOUT,Fouts,NF,530-934-1250/530-934-3316,NA,NA,11,1627,NH ND 16ft VT DW NS NR,CA,5.9,W,Stonyford,vault,TRUE,FALSE,FALSE,177.36179431589696
-122.656,39.362,DAVI,Davis Flat,NF,530-934-1250/530-934-3316,NA,NA,29,1591,30ft VT DW NR,CA,17.9,S,Elk Creek,vault,TRUE,FALSE,NA,177.38196754596123
-120.408,37.701,FLEM,Fleming Meadow - Don Pedro Rec Area,CP,408-262-7731,NA,NA,195,NA,E DP FT DW SH,CA,4.0,NE,La Grange,flush,TRUE,NA,TRUE,177.47920107278307
-121.574,36.326,WHIO,White Oaks,NF,831-385-5434/805-961-5778,NA,NA,7,4019,NH ND VT NW NS NR,CA,18.4,W,Greenfield,vault,FALSE,FALSE,FALSE,177.51038539587242
-121.783,36.249,PFEI,Pfeiffer Big Sur State Park,SP,831-667-2315,mid may-late dec,NA,158,NA,NH DP 32ft FT DW SH RS,CA,2.1,SE,Big Sur,flush,TRUE,TRUE,TRUE,178.56030517573927
-122.648,39.379,NORK,North Fork,NF,530-934-1250/530-934-3316,NA,NA,5,1509,NR,CA,5.5,W,Stonyford,NA,NA,FALSE,NA,179.17758181818533
-121.632,39.276,LIVE,Live Oak Riverfront Park,CP,530-822-7410,NA,NA,21,NA,W  ND PT DW NS NR L$,CA,NA,NA,Live Oak,pit,TRUE,FALSE,FALSE,180.2219097885351
-121.141,36.499,PINL,Pinnacles,NM,831-389-4538,all year,has pool,78,NA,E DP FT DW SH RS PA,CA,2.4,E,Pinnacles,flush,TRUE,TRUE,TRUE,181.5243178372562
-120.342,37.83,MOCC,Moccasin Point - Don Pedro State Rec Area,SP,209-852-2396,NA,NA,89,NA,WE DP FT DW SH NR,CA,6.1,W,Groveland,flush,TRUE,FALSE,TRUE,183.04994120601074
-120.752,38.799,FINN,Finnon Lake,CP,530-622-6832,NA,NA,14,2424,E ND NS,CA,5.4,NE,Placerville,NA,NA,NA,FALSE,184.93527408397657
-120.933,38.964,RUCK,Rucky A Chucky - Auburn State Rec Area,SRA,530-885-4527,NA,primitive - 2.5 mile dirt road - unknown facilities,5,NA,20ft NW NR,CA,NA,NA,NA,NA,FALSE,FALSE,NA,185.18495262321412
-123.064,39.377,TROU,Trout Creek,UTIL,NA,NA,NA,17,1618,NH ND VT DW NS PA,CA,4.6,NE,Potter Valley,vault,TRUE,NA,FALSE,186.50315112762664
-122.825,39.443,LOWN,Lower Nye,NF,707-275-2361/530-934-3316,mid may-mid nov,NA,6,3317,NH ND NW NS NR N$,CA,19.8,N,Upper Lake,NA,FALSE,FALSE,FALSE,188.51177797121122
-120.288,37.642,BART,Barrett Cove Rec Area,COE,NA,NA,NA,275,NA,E DP FT DW SH NR,CA,9.7,E,La Grange,flush,TRUE,FALSE,TRUE,188.5186233818808
-123.665,39.171,NAVV,Navarro River Redwoods State Park,SP,707-937-5804,NA,NA,35,NA,NH 30ft VT DW NR,CA,6.6,SE,Albion,vault,TRUE,FALSE,NA,189.28943986826522
-120.297,37.523,LAKW,Lake McSwain Rec Area,COE,NA,NA,NA,99,NA,E DP 40ft FT DW SH NR,CA,7.7,E,Snelling,flush,TRUE,FALSE,TRUE,189.3715407163223
-120.276,37.609,MCCP,McClure Point Rec Area,UTIL,NA,NA,NA,100,NA,E DP 40ft FT DW SH,CA,10.8,NE,Snelling,flush,TRUE,NA,TRUE,189.93521367213322
-121.483,36.235,ARRO,Arroyo Seco,NF,831-385-5434/805-961-5778,all year,NA,40,NA,NH ND 26ft FT DW SH RS,CA,14.6,SW,Greenfield,flush,TRUE,TRUE,TRUE,190.13206250415232
-122.939,39.439,SUN1,Sunset Point  - Lake Pillsbury,NF,707-275-2361/530-934-3316,NA,NA,54,1942,NH ND 40ft VT DW NS NR,CA,19.0,N,Upper Lake,vault,TRUE,FALSE,FALSE,190.1908214449999
-122.968,39.436,FULG,Fuller Grove - Lake Pillsbury,UTIL,707-275-2361/530-934-3316,NA,NA,30,1838,NH ND 42ft VT DW NS,CA,11.1,NE,Potter Valley,vault,TRUE,NA,FALSE,190.48538276947295
-122.957,39.442,NAVY,Navy Camp - Lake Pillsbury,NF,707-275-2361/530-934-3316,NA,NA,20,1837,NH ND 20ft VT DW NS NR,CA,24.2,NE,Ukiah,vault,TRUE,FALSE,FALSE,190.89256180033945
-122.953,39.443,OAFL,Oak Flat Overflow - Lake Pillsbury,NF,707-275-2361/530-934-3316,NA,NA,12,1841,NH ND 40ft VT DW NS NR,CA,19.4,N,Upper Lake,vault,TRUE,FALSE,FALSE,190.91501706943333
-122.953,39.444,OAKF,Oak Flat - Lake Pillsbury,NF,707-275-2361/530-934-3316,NA,NA,12,1844,NH VT NW NR,CA,19.7,NE,Calpella,vault,FALSE,FALSE,NA,191.022623585176
-122.968,39.442,POGI,Pogie Point - Lake Pillsbury,NF,707-275-2361/530-934-3316,NA,NA,50,1841,NH ND 30ft NS NR,CA,11.4,NE,Potter Valley,NA,NA,FALSE,FALSE,191.1297953797443
-120.989,39.084,BERC,Bear River County Park,CP,530-886-4901,mid jun-mid oct,NA,23,5947,NH ND VT DW NS,CA,2.2,SW,Colfax,vault,TRUE,NA,FALSE,191.6099215703068
-120.242,37.7,HORB,Horseshoe Bend Rec Area,COE,NA,NA,NA,110,NA,E DP FT DW SH NR,CA,2.6,W,Coulterville,flush,TRUE,FALSE,TRUE,192.10181660867727
-120.57,38.725,SLYR,Sly Park,CP,530-295-6810,NA,8 campgrounds - ungrouped,191,3501,NH ND VT DW NS RS,CA,NA,NA,Pollock Pines,vault,TRUE,TRUE,FALSE,193.20009288564322
-120.765,38.942,DRUB,Dru Barner,NF,530-333-4312/530-622-5061,NA,NA,47,3205,NH ND DW NS NR,CA,4.6,NE,Georgetown,NA,TRUE,FALSE,FALSE,194.13960165587494
-120.557,38.727,PINE,Pine Cone  - Sly Park Recreation Area,CP,530-644-2545,NA,NA,NA,3518,NH ND VT DW NS RS,CA,2.8,SE,Pollock Pines,vault,TRUE,TRUE,FALSE,194.2732433313845
-120.549,38.726,SIER,Sierra  - Sly Park Recreation Area,CP,530-644-2545,NA,NA,NA,3480,NH ND NS,CA,3.2,SE,Pollock Pines,NA,NA,NA,FALSE,194.80191122303833
-120.433,38.567,PIPI,Pipi,NF,209-295-4251/530-622-5061,mid apr-late sep,NA,51,3986,NH ND 35ft VT DW NS RS PA,CA,12.0,NE,Pioneer,vault,TRUE,TRUE,FALSE,195.00354825256358
-120.288,38.272,CALA,Calaveras Big Trees State Park,SP,209-795-2334,mid may-late dec,NA,129,4511,NH ND 30ft FT DW SH RS,CA,3.6,E,Arnold,flush,TRUE,TRUE,TRUE,195.1053626690341
-120.546,38.729,JENK,Jenkinson  - Sly Park Recreation Area,CP,530-644-2545,NA,NA,NA,3614,NH ND VT DW NS RS,CA,3.1,SE,Pollock Pines,vault,TRUE,TRUE,FALSE,195.20025802312765
-120.544,38.732,STON,Stonebraker  - Sly Park Recreation Area,CP,530-644-2545,NA,NA,NA,3675,NH ND VT DW NS RS,CA,3.1,SE,Pollock Pines,vault,TRUE,TRUE,FALSE,195.52521395654674
-120.542,38.735,HILL,Hilltop  - Sly Park Recreation Area,CP,530-644-2545,NA,NA,NA,3661,NH ND VT DW NS RS,CA,3.0,SE,Pollock Pines,vault,TRUE,TRUE,FALSE,195.850341227988
-120.538,38.734,CHIM,Chimney  - Sly Park Recreation Area,CP,530-644-2545,NA,NA,NA,3489,NH ND VT DW NS RS,CA,3.2,SE,Pollock Pines,vault,TRUE,TRUE,FALSE,196.08480983225408
-120.924,39.101,MINB,Mineral Bar - Auburn State Rec Area,SRA,530-885-4527,NA,NA,18,NA,NH ND 24ft PT NW NS NR,CA,1.6,E,Colfax,pit,FALSE,FALSE,FALSE,196.75395773249346
-120.531,38.739,HAZE,Hazel Creek  - Sly Park Recreation Area,CP,530-644-2545,NA,NA,NA,3484,NH ND VT DW NS RS,CA,3.4,SE,Pollock Pines,vault,TRUE,TRUE,FALSE,196.89589305580745
-120.528,38.739,RAIN,Rainbow  - Sly Park Recreation Area,CP,530-644-2545,NA,NA,NA,3524,NH ND VT DW NS RS,CA,3.5,SE,Pollock Pines,vault,TRUE,TRUE,FALSE,197.11633089506188
-121.077,39.206,NEVA,Nevada County Fairgrounds,CP,530-273-6217,NA,NA,NA,2442,E DP DW SH,CA,1.3,SW,Grass Valley,NA,TRUE,NA,TRUE,197.35916159593123
-120.526,38.742,DEER,Deerwood  - Sly Park Recreation Area,CP,530-644-2545,NA,NA,NA,3605,NH ND VT DW NS RS,CA,3.5,SE,Pollock Pines,vault,TRUE,TRUE,FALSE,197.4413272147839
-120.522,38.741,KANE,Kane XXX  - Sly Park Recreation Area,CP,530-644-2545,NA,NA,NA,3572,NH ND VT DW NS RS,CA,3.8,E,Pollock Pines,vault,TRUE,TRUE,FALSE,197.67593977380227
-120.182,37.993,RIVR,River Ranch,NF,209-928-3708,NA,part private,38,2500,NH 22ft VT DW NR,CA,4.1,SE,Twain Harte,vault,TRUE,FALSE,NA,198.30370416582133
-120.181,37.996,HACI,Hacienda,NF,209-586-3234/209-533-3671,NA,NA,8,2598,NR,CA,4.0,SE,Twain Harte,NA,NA,FALSE,NA,198.42794468358164
-121.495,36.141,ESCO,Escondido,NF,831-385-5434/805-961-5778,NA,NA,9,2188,NH ND VT NW NS NR N$,CA,18.7,SW,Greenfield,vault,FALSE,FALSE,FALSE,199.13651304800467
-120.234,38.301,BOAR,Boards Crossing,NF,209-795-1381/209-533-3671,NA,NA,10,3999,NH ND VT NW NS NR,CA,NA,NA,NA,vault,FALSE,FALSE,FALSE,200.53448976123562
-120.406,38.651,CAPP,Capps Crossing,NF,530-644-2324/530-622-5061,mid may-mid sep,NA,11,5121,NH ND VT DW NS RS,CA,12.3,SE,Pollock Pines,vault,TRUE,TRUE,FALSE,201.36072850600036
-122.525,39.592,GRIM,Grimy Gulch - Stony Gorge Reservoir - USBR,BOR,NA,NA,has picnic tables,NA,NA,NH ND NS NR N$,CA,1.2,SE,Elk Creek,NA,NA,FALSE,FALSE,201.92441767640722
-122.525,39.592,STON,Stony Gorge Reservoir,BOR,NA,NA,several campgrounds - unknown facil,NA,NA,NH ND PT NW NS NR,CA,1.2,SE,Elk Creek,pit,FALSE,FALSE,FALSE,201.92441767640722
-120.136,37.61,BAGB,Bagby Rec Area,COE,NA,NA,NA,30,NA,E ND FT DW SH NR,CA,7.7,SE,Coulterville,flush,TRUE,FALSE,TRUE,202.21610798927816
-120.603,38.906,PONC,Ponderosa Cove,NF,530-333-4312/530-622-5061,NA,NA,18,4318,NH ND NS NR,CA,10.0,N,Pollock Pines,NA,NA,FALSE,FALSE,202.4301322084211
-121.466,36.118,MEMO,Memorial Park,NF,831-385-5434/805-961-5778,NA,NA,8,2129,NH ND VT NW NS NR N$,CA,18.7,SW,Greenfield,vault,FALSE,FALSE,FALSE,202.53732739690096
-120.214,38.325,WAKA,Wa Ka Luu Hep Yoo,NF,209-795-1381/209-533-3671,NA,NA,52,4101,NH ND 50ft FT DW SH NR,CA,8.8,NE,Arnold,flush,TRUE,FALSE,TRUE,202.9697004794991
-120.591,38.904,STUM,Stumpy Meadows,NF,530-333-4312/530-622-5061,mid apr-mid oct,NA,40,4465,NH ND 35ft VT DW NS RS,CA,13.3,E,Georgetown,vault,TRUE,TRUE,FALSE,203.11869281063557
-120.271,38.478,MOKE,Mokelumne,NF,209-295-4251/530-622-5061,NA,NA,13,9180,NH ND VT NW NS NR,CA,28.7,E,Jackson,vault,FALSE,FALSE,FALSE,203.89449004349214
-120.271,38.478,MOKR,Mokelumne River,NF,209-795-1381/209-533-3671,NA,NA,13,3244,NH ND VT NW NS NR,CA,14.9,E,West Point,vault,FALSE,FALSE,FALSE,203.89449004349214
-120.155,38.184,SANF,Sand Bar Flat,NF,209-586-3234/209-533-3671,NA,NA,10,2825,NH ND 22ft VT DW NS NR L$,CA,14.7,N,Mi-Wuk,vault,TRUE,FALSE,FALSE,204.05378231312724
-120.267,38.48,MOOR,Moore Creek,NF,209-795-1381/209-533-3671,mid may-late aug,NA,8,3343,NH ND VT NW NS RS,CA,26.0,SE,Pollock Pines,vault,FALSE,TRUE,FALSE,204.30107312571465
-120.093,37.819,PINE,The Pines,NF,209-962-7825/209-533-3671,NA,NA,11,3314,NH ND 22ft VT DW NS NR,CA,7.7,E,Groveland,vault,TRUE,FALSE,FALSE,204.94870532144145
-123.787,39.279,VAND,Van Damme State Park,SP,707-937-5804,mid may-late dec,NA,70,NA,NH DP 35ft FT DW SH RS,CA,2.1,S,Mendocino,flush,TRUE,TRUE,TRUE,205.17406937075853
-120.301,38.583,MIDF,Middlefork Cosumnes,NF,209-295-4251/530-622-5061,mid may-mid nov,Site no 19 is lg camp at end of campground,19,5259,NH ND 30ft VT NW NS NR,CA,28.7,E,Placerville,vault,FALSE,FALSE,FALSE,206.14148112825205
-121.153,36.207,SANR,San Lorenzo,CP,831-755-4895,NA,NA,NA,NA,E DP FT DW SH,CA,1.6,W,King City,flush,TRUE,NA,TRUE,207.3258910860453
-120.792,39.139,GIAN,Giant Gap,NF,530-367-2224/530-265-4531,mid may-late sep,NA,35,3671,NH 35ft VT DW NS RS,CA,8.3,N,Foresthill,vault,TRUE,TRUE,FALSE,207.6120031681623
-120.786,39.144,SHIR,Shirttail,NF,530-367-2224/530-265-4531,mid may-late sep,NA,30,3701,NH DP 35ft VT DW NS RS,CA,8.8,N,Foresthill,vault,TRUE,TRUE,FALSE,208.37169424036492
-120.244,38.534,SOUS,South Shore,NF,209-295-4251/530-622-5061,mid jun-late sep,NA,22,10157,NH ND VT DW NS RS,CA,19.1,E,Pioneer,vault,TRUE,TRUE,FALSE,208.44972399209985
-120.049,37.839,LUMD,Lumsden,NF,209-962-7825/209-533-3671,all year,NA,10,NA,NH ND 22ft VT NW NS NR N$,CA,9.9,E,Groveland,vault,FALSE,FALSE,FALSE,208.85824992218528
-120.24,38.537,PARP,Pardoes Point,NF,209-295-4251/530-622-5061,mid may-mid nov,NA,10,6000,NH ND VT NW NS NR,CA,19.4,E,Pioneer,vault,FALSE,FALSE,FALSE,208.90143819396454
-120.048,37.821,LOST,Lost Claim,NF,209-962-7825/209-533-3671,NA,NA,10,3061,NH ND 22ft VT DW NS NR,CA,10.0,E,Groveland,vault,TRUE,FALSE,FALSE,208.91311992693105
-120.046,37.838,SOU2,South Fork,NF,209-962-7825/209-533-3671,all year,NA,9,1545,NH ND 22ft VT NW NS NR N$,CA,11.6,E,Big Oak Flat,vault,FALSE,FALSE,FALSE,209.11992483853268
-120.241,38.547,SUGP,Sugar Pine Point,NF,209-295-4251/530-622-5061,NA,NA,8,6200,NH VT NW NR,CA,19.6,NE,Pioneer,vault,FALSE,FALSE,NA,209.26146292510788
-123.779,39.331,RUSS,Russian Gulch State Park,SP,707-937-5804,mid may-late dec,NA,30,NA,NH ND 24ft FT DW SH RS,CA,2.0,NE,Mendocino,flush,TRUE,TRUE,TRUE,209.47885909987443
-120.754,39.144,BIGE,Big Reservoir,NF,530-367-2224/530-265-4531,NA,NA,19,4144,NH DP 30ft VT DW SH NR,CA,9.2,N,Foresthill,vault,TRUE,FALSE,TRUE,210.2921457392693
-120.032,37.848,LUMS,Lumsden Bridge,NF,209-962-7825/209-533-3671,all year,NA,9,1545,NH ND 22ft VT NW NS NR N$,CA,10.9,E,Groveland,vault,FALSE,FALSE,FALSE,210.37771969543803
-120.07,38.17,FRAS,Fraser Flat,NF,209-965-3434/209-533-3671,NA,NA,38,4797,NH DP 22ft VT DW NS NR,CA,15.9,NE,Mi-Wuk,vault,TRUE,FALSE,FALSE,211.03112724793627
-120.075,38.21,BEAD,Beardsley Dam,NF,209-965-3434/209-533-3671,NA,NA,16,3337,NH ND 22ft VT NW NS NR N$,CA,NA,NA,NA,vault,FALSE,FALSE,FALSE,211.51591519874765
-120.44,38.871,WESP,West Point,NF,530-644-2349/530-622-5061,NA,NA,8,5007,NH ND VT NW NS NR N$,CA,NA,NA,NA,vault,FALSE,FALSE,FALSE,211.56578742245887
-121.518,36.01,LIMK,Limekiln State Park,SP,831-667-2403,mid may-late dec,NA,31,NA,NH ND 24ft FT DW SH RS,CA,24.2,SE,Big Sur,flush,TRUE,TRUE,TRUE,211.6976142565573
-120.042,38.094,HULL,Hull Creek,NF,209-586-3234/209-533-3671,NA,NA,18,5633,NH ND 22ft VT DW NS NR L$,CA,13.1,NE,Mi-Wuk,vault,TRUE,FALSE,FALSE,211.97219757751037
-121.459,39.533,BIDC,Bidwell Canyon - Lake Oroville State Rec Area,SRA,530-538-2200,all year,NA,75,NA,E 40ft FT DW RS,CA,5.4,E,Oroville,flush,TRUE,TRUE,NA,212.31234095485704
-121.447,39.529,LOAF,Loafer Creek - Lake Oroville State Rec Area,SRA,530-538-2200,all year,NA,NA,NA,NH DP RS,CA,5.9,E,Oroville,NA,NA,TRUE,NA,212.31929870686147
-120.002,37.824,SWEW,Sweetwater,NF,209-962-7825/209-533-3671,NA,NA,12,3064,NH ND 22ft VT DW NS NR,CA,12.5,E,Groveland,vault,TRUE,FALSE,FALSE,212.96690270784427
-120.008,37.61,RAIL,Railroad Flat,BLM,209-379-9414,NA,NA,6,NA,NH ND PT NW NS NR L$,CA,NA,NA,NA,pit,FALSE,FALSE,FALSE,213.4606688786079
-120.325,38.763,SAN2,Sand Flat,NF,530-644-2324/530-622-5061,mid may-mid sep,NA,29,3930,NH ND 40ft VT DW NS NR,CA,25.6,E,Placerville,vault,TRUE,FALSE,FALSE,213.58482347851114
-120.414,38.88,CACO,Camino Cove,NF,530-644-2349/530-622-5061,NA,NA,32,4900,NH ND VT NW NS NR N$,CA,12.4,NE,Pollock Pines,vault,FALSE,FALSE,FALSE,213.99175472759617
-120.403,38.868,SUN2,Sunset,NF,530-644-2349/530-622-5061,early jun-late aug,NA,139,4984,NH ND 35ft VT DW SH RS,CA,12.3,NE,Pollock Pines,vault,TRUE,TRUE,TRUE,214.0345677960553
-120.003,37.597,MCCA,McCabe Flat,BLM,NA,NA,swim in river,3,NA,NH ND 18ft PT NW NS NR L$,CA,8.0,N,Mariposa,pit,FALSE,FALSE,FALSE,214.04677761053276
-121.496,35.99,KIRK,Kirk Creek,NF,831-385-5434/805-961-5778,all year,operated under contract - no potable water,33,NA,NH ND 30ft FT NW NS RS PA,CA,3.7,SE,Lucia,flush,FALSE,TRUE,FALSE,214.50114257402015
-120.396,38.869,FASH,Fashoda,NF,530-644-2349/530-622-5061,early jun-late aug,Tent only,30,4902,NH ND DW SH RS,CA,12.7,NE,Pollock Pines,NA,TRUE,TRUE,TRUE,214.60085381475938
-121.121,39.418,SCHL,Schoolhouse,NF,530-288-3231/530-265-4531,NA,NA,70,2310,NH ND 32ft FTVT DW NS NR,CA,4.5,SW,Camptonville,flush_and_vault,TRUE,FALSE,FALSE,214.61630217481397
-120.383,38.859,JONF,Jones Fork,NF,530-644-2349/530-622-5061,mid may-mid oct,NA,10,5075,NH ND 35ft VT NW NS NR,CA,12.9,NE,Pollock Pines,vault,FALSE,FALSE,FALSE,214.92566370622694
-120.106,38.417,BIG2,Big Meadow,NF,209-795-1381/209-533-3671,early jun-late aug,NA,68,6562,NH ND 27ft VT DW NS RS,CA,17.3,NE,Arnold,vault,TRUE,TRUE,FALSE,215.07101499486723
-120.385,38.864,LONE,Lone Rock,NF,530-644-2349/530-622-5061,NA,NA,5,4974,NH ND VT NW NS NR N$,CA,7.8,NW,Kyburz,vault,FALSE,FALSE,FALSE,215.08715286759877
-120.968,39.342,SOUY,South Yuba,BLM,NA,NA,NA,16,3022,NH 27ft VT DW NR L$,CA,6.1,NE,Nevada City,vault,TRUE,FALSE,NA,215.08755118297856
-120.357,38.832,ICEH,Ice House,NF,530-644-2349/530-622-5061,early jun-late sep,NA,83,5525,NH DP 35ft VT DW NS RS,CA,13.3,E,Pollock Pines,vault,TRUE,TRUE,FALSE,215.19234759702937
-120.347,38.831,NORW,Northwind,NF,530-644-2349/530-622-5061,mid may-mid oct,NA,9,5482,NH ND 30ft VT NW NS NR,CA,25.3,E,Placerville,vault,FALSE,FALSE,FALSE,215.866761949466
-121.123,39.433,GARD,Garden Point,NF,530-288-3231/530-265-4531,NA,NA,20,1949,NH NR,CA,4.2,W,Camptonville,NA,NA,FALSE,NA,215.9360181382167
-121.108,39.429,DARK,Dark Day,NF,530-288-3231/530-265-4531,NA,NA,15,2034,NH ND VT DW NS NR,CA,3.5,SW,Camptonville,vault,TRUE,FALSE,FALSE,216.24650934869283
-120.338,38.828,STRP,Strawberry Point,NF,530-644-2349/530-622-5061,mid may-mid oct,NA,10,5489,NH ND 35ft VT NW NS NR,CA,25.7,E,Placerville,vault,FALSE,FALSE,FALSE,216.35120868548006
-120.388,38.89,YELL,Yellowjacket,NF,530-644-2349/530-622-5061,early jun-late aug,NA,40,4997,NH DP 35ft FTVT DW NS RS,CA,13.9,NE,Pollock Pines,flush_and_vault,TRUE,TRUE,FALSE,216.48099602321832
-121.395,36.005,NACI,Nacimiento,NF,831-385-5434/805-961-5778,NA,NA,8,1657,NH ND 25ft VT NW NS NR,CA,29.5,SE,Big Sur,vault,FALSE,FALSE,FALSE,216.60024079552588
-120.005,38.186,MEAV,Meadowview,NF,209-965-3434/209-533-3671,NA,NA,100,5643,NH ND 22ft FT DW NS NR,CA,18.9,NE,Mi-Wuk,flush,TRUE,FALSE,FALSE,216.96436380124538
-120.08,38.411,SAN3,Sand Flat,NF,209-965-3434/209-533-3671,NA,NA,5,5814,NH ND VT NW NS NR,CA,NA,NA,NA,vault,FALSE,FALSE,FALSE,217.01429668236335
-121.151,39.458,FREN,Frenchy Point,NF,530-288-3231/530-265-4531,NA,NA,9,2090,NR,CA,5.5,W,Camptonville,NA,NA,FALSE,NA,217.0454958118042
-120.268,38.754,CHIT,China Flat,NF,530-644-2324/530-622-5061,mid may-mid sep,NA,19,4711,NH ND 40ft VT DW NS NR,CA,2.1,SE,Kyburz,vault,TRUE,FALSE,FALSE,217.38855690434352
-121.13,39.452,BULS,Bullards Lakeshore,NF,530-288-3231/530-265-4531,NA,no failities,60,2162,NH ND NT NW NS NR,CA,4.3,W,Camptonville,none,FALSE,FALSE,FALSE,217.4135710817578
-120.374,38.889,WENC,Wench Creek,NF,530-644-2349/530-622-5061,early jun-mid sep,NA,2,4974,NH ND 40ft FTVT DW NS RS,CA,14.4,NE,Pollock Pines,flush_and_vault,TRUE,TRUE,FALSE,217.4241226360715
-121.384,35.998,POND,Ponderosa,NF,831-385-5434/805-961-5778,all year,NA,23,1552,NH ND 32ft VT DW NS RS PA,CA,26.7,NW,San Simeon,vault,TRUE,TRUE,FALSE,217.7203320724911
-119.995,38.19,PINR,Pinecrest,NF,209-965-3434/209-533-3671,early may-mid oct,NA,200,5686,NH ND 22ft FT DW NS RS,CA,19.5,NE,Mi-Wuk,flush,TRUE,TRUE,FALSE,217.91104057192527
-120.207,38.699,SILF,Silver Fork,NF,530-644-2324/530-622-5061,mid may-mid sep,NA,35,5571,NH ND 40ft VT DW NS NR,CA,27.0,NE,Pioneer,vault,TRUE,FALSE,FALSE,219.16874759997017
-120.847,39.32,WHCH,White Cloud,NF,530-288-3231/530-265-4531,mid may-mid sep,NA,46,4419,NH ND 28ft FT DW NS RS,CA,9.9,NE,Nevada City,flush,TRUE,TRUE,FALSE,219.5534321432864
-121.946,39.718,BIDW,Bidwell - Sacramento River State Park,SP,530-342-5185,NA,NA,NA,NA,NR,CA,5.8,W,Chico,NA,NA,FALSE,NA,219.5946755901131
-122.845,39.729,PLAM,Plaskett Meadows,NF,530-934-1250/530-934-3316,mid may-mid nov,NA,35,6083,NH ND 16ft VT DW NS NR L$,CA,18.3,NW,Elk Creek,vault,TRUE,FALSE,FALSE,220.05752226973698
-120.046,38.422,STAN,Stanislaus River,NF,209-795-1381/209-533-3671,NA,NA,25,6230,NH ND 35ft VT DW NS NR L$,CA,20.1,NE,Arnold,vault,TRUE,FALSE,FALSE,220.21678463409984
-119.944,37.465,MAPO,Mariposa Fairgrounds,CP,209-966-2432,NA,NA,NA,1847,E DP DW SH,CA,1.8,SE,Mariposa,NA,TRUE,NA,TRUE,221.2209301137307
-120.9,39.373,MALA,Malakoff Diggins State Park,SP,530-265-2740,all year,NA,NA,3353,NH ND 24ft FT DW NS RS,CA,9.9,NE,Nevada City,flush,TRUE,TRUE,FALSE,221.35644442613872
-119.915,37.987,CHEV,Cherry Valley,NF,209-962-7825/209-533-3671,NA,NA,45,4941,NH ND 22ft VT DW NS NR,CA,20.0,NE,Groveland,vault,TRUE,FALSE,FALSE,221.5699858541087
-120.392,38.975,GERL,Gerle Creek,NF,530-644-2349/530-622-5061,mid may-late aug,NA,50,5308,NH ND 35ft VT DW NS RS,CA,18.1,NE,Pollock Pines,vault,TRUE,TRUE,FALSE,221.64795083795582
-122.353,39.772,ORLA,Orland Buttes Rec Area,COE,530-865-4781,early apr-mid sep,NA,33,NA,NH DP DW SH RS,CA,8.5,W,Orland,NA,TRUE,TRUE,TRUE,221.77549984943263
-119.97,38.28,CASC,Cascade Creek,NF,209-965-3434/209-533-3671,NA,NA,14,6115,NH ND 22ft VT NW NS NR L$,CA,25.2,NE,Mi-Wuk,vault,FALSE,FALSE,FALSE,222.23649792917388
-120.79,39.318,SKIL,Skillman,NF,530-478-0248,mid may-mid sep,horse camp,NA,4484,NH ND NS RS,CA,12.7,E,Nevada City,NA,NA,TRUE,FALSE,222.51917975744706
-121.467,35.918,PLAT,Plaskett Creek,NF,831-385-5434/805-961-5778,all year,Temporary non-potable water in Oct 2010,42,NA,NH ND 30ft FT DW NS RS PA,CA,8.5,SE,Lucia,flush,TRUE,TRUE,FALSE,222.88640145374103
-120.38,38.985,AIRP,Airport Flat,NF,530-644-2349/530-622-5061,mid may-mid oct,NA,16,5404,NH ND VT DW NS NR N$,CA,19.1,NE,Pollock Pines,vault,TRUE,FALSE,FALSE,223.14338359850723
-121.567,39.677,LIMS,Limesaddle - Lake Oroville State Rec Area,SRA,530-538-2200,all year,NA,NA,NA,NH RS,CA,11.3,N,Oroville,NA,NA,TRUE,NA,223.78190649287794
-119.997,38.409,SPIC,Spicer Meadow,NF,NA,NA,NA,43,6555,NH ND 50ft VT DW NS NR,CA,48.5,S,Lake Tahoe,vault,TRUE,FALSE,FALSE,223.8437715329768
-120.024,38.476,LODO,Lodgepole Overflow,NF,209-795-1381/209-533-3671,NA,NA,30,7365,NH ND VT DW NS NR L$,CA,1.1,NE,Bear Valley,vault,TRUE,FALSE,FALSE,223.97951115113156
-119.935,38.249,HERR,Herring Reservoir,NF,209-965-3434/209-533-3671,NA,NA,42,7464,NH ND 22ft VT NW NS NR N$,CA,3.9,NE,Bumblebee,vault,FALSE,FALSE,FALSE,224.42417255039808
-120.121,38.672,SIL3,Silver Lake,NF,209-295-4251/530-622-5061,NA,NA,62,8373,NH ND NS NR,CA,17.7,E,Eldorado,NA,NA,FALSE,FALSE,224.5374874363821
-119.932,38.244,HERC,Herring Creek,NF,209-965-3434/209-533-3671,NA,NA,7,7425,NH ND 22ft VT NW NS NR N$,CA,3.8,NE,Bumblebee,vault,FALSE,FALSE,FALSE,224.5581762390091
-119.87,37.863,DIAM,Diamond O,NF,209-965-3434/209-533-3671,NA,NA,31,4385,NH ND VT DW NS NR,CA,19.8,E,Groveland,vault,TRUE,FALSE,FALSE,224.6753325105967
-120.017,38.481,SILT,Silvertip,NF,209-795-1381/209-533-3671,NA,NA,23,7569,NH ND FT DW NS NR,CA,1.7,NE,Bear Valley,flush,TRUE,FALSE,FALSE,224.74126197994127
-119.868,37.797,HODG,Hodgdon Meadow - Yosemite National Park,NP,209-372-0200,mid apr-late dec,NA,NA,4977,NH 35ft FT DW NS RS PA,CA,20.0,E,Groveland,flush,TRUE,TRUE,FALSE,224.75194238368255
-120.238,38.846,WRIG,Wrights Lake,NF,530-644-2349/530-622-5061,early jul-late sep,NA,70,8930,NH VT DW RS,CA,5.9,NE,Kyburz,vault,TRUE,TRUE,NA,224.79090744994875
-123.794,39.493,MACK,MacKerricher State Park,SP,707-964-9112,mid may-late dec,NA,148,NA,NH DP 35ft FT DW SH RS,CA,12.8,N,Mendocino,flush,TRUE,TRUE,TRUE,225.16062105990883
-120.005,38.477,LAKA,Lake Alpine,NF,209-795-1381/209-533-3671,NA,NA,25,7402,NH ND 27ft FT DW NS NR,CA,24.2,NE,Arnold,flush,TRUE,FALSE,FALSE,225.57923366386788
-119.937,38.302,MILR,Mill Creek,NF,209-965-3434/209-533-3671,NA,NA,17,6348,NH ND 22ft VT NW NS NR L$,CA,27.5,NE,Mi-Wuk,vault,FALSE,FALSE,FALSE,225.63021749021087
-119.962,37.214,CODO,Codorniz Rec Area,COE,559-689-3255,all year,NA,62,NA,WES DP FT DW SH RS PA,CA,17.6,E,Chowchilla,flush,TRUE,TRUE,TRUE,226.0453390259268
-122.362,39.811,BUCA,Buckhorn Rec Area,COE,530-865-4781,all year,NA,NA,NA,NH DP DW SH RS L$,CA,9.8,NW,Orland,NA,TRUE,TRUE,TRUE,226.08562375178516
-120.425,39.075,BIME,Big Meadows,NF,530-333-4312/530-622-5061,mid may-mid oct,NA,54,5410,NH ND 40ft FTVT DW NS NR,CA,21.4,E,Foresthill,flush_and_vault,TRUE,FALSE,FALSE,226.170851069946
-120.657,39.27,NORR,North Fork,NF,530-288-3231/530-265-4531,mid may-mid sep,NA,17,4810,NH ND 35ft VT DW NS RS,CA,10.6,NE,Dutch Flat,vault,TRUE,TRUE,FALSE,226.187978773236
-120.416,39.069,HELL,Hell Hole,NF,530-333-4312/530-622-5061,mid may-mid oct,NA,10,5121,NH ND VT DW NS NR,CA,25.3,NE,Georgetown,vault,TRUE,FALSE,FALSE,226.35881066298523
-120.502,39.156,ROBF,Robinson Flat,NF,530-367-2224/530-265-4531,NA,NA,14,6765,NH ND 25ft VT DW NS NR N$,CA,19.4,NE,Foresthill,vault,TRUE,FALSE,FALSE,226.93944496302925
-119.848,37.661,INDA,Indian Flat,NA,559-297-0706,all year,NA,NA,1703,WES DP FT DW SH N$,CA,3.6,W,El Portal,flush,TRUE,NA,TRUE,227.05963237831816
-119.989,38.482,PNMT,Pine Marten,NF,209-795-1381/209-533-3671,NA,NA,32,7375,NH ND 27ft FT DW NS NR,CA,3.0,NE,Bear Valley,flush,TRUE,FALSE,FALSE,227.08051011149615
-119.986,38.481,SILL,Silver Valley,NF,209-795-1381/209-533-3671,NA,NA,21,7431,NH ND 27ft FT DW NS NR,CA,25.2,NE,Arnold,flush,TRUE,FALSE,FALSE,227.29040275601548
-120.316,38.981,LOON,Loon Lake,NF,530-644-2349/530-622-5061,mid jun-late sep,NA,53,6496,NH ND 35ft VT DW NS RS,CA,21.0,NE,Pollock Pines,vault,TRUE,TRUE,FALSE,227.37557497383315
-119.837,37.671,DIRT,Dirt Flat,NF,559-877-2218/559-297-0706,all year,NA,5,1604,NH ND VT DW NS RS,CA,2.9,W,El Portal,vault,TRUE,TRUE,FALSE,227.95378156274023
-119.835,37.674,DRYG,Dry Gulch,NF,559-642-3212,all year,walk to sites only,4,1600,NH ND VT DW NS RS,CA,14.9,NE,Mariposa,vault,TRUE,TRUE,FALSE,228.10868892428607
-119.914,38.325,NIAG,Niagra Creek,NF,209-965-3434/209-533-3671,NA,NA,16,6640,NH ND 22ft VT NW NS NR,CA,29.5,NE,Mi-Wuk,vault,FALSE,FALSE,FALSE,228.21699510442295
-120.323,39.011,WENT,Wentworth Springs,NF,530-644-2349/530-622-5061,mid jun-mid oct,NA,8,6188,NH ND VT NW NS NR,CA,32.1,NE,Placerville,vault,FALSE,FALSE,FALSE,228.8319411828519
-120.087,38.707,KIRW,Kirkwood Lake,NF,209-295-4251/530-622-5061,mid jun-mid oct,NA,12,7802,NH ND VT DW NS NR,CA,32.4,NE,Pioneer,vault,TRUE,FALSE,FALSE,228.8948408509278
-120.311,39.0,NORS,Northshore,NF,530-644-2349/530-622-5061,mid jun-mid oct,NA,15,6375,NH ND VT NW NS NR,CA,22.2,NE,Pollock Pines,vault,FALSE,FALSE,FALSE,228.9555789733103
-119.839,37.546,JERS,Jerseydale,NF,559-877-2218/559-297-0706,NA,NA,10,3724,NH ND 24ft VT DW NS NR N$,CA,18.3,NW,Oakhurst,vault,TRUE,FALSE,FALSE,229.0893625401564
-120.421,39.115,FRED,French Meadows,NF,530-367-2224/530-265-4531,mid may-late sep,NA,75,5354,NH ND 30ft FTVT DW NS RS,CA,22.3,E,Foresthill,flush_and_vault,TRUE,TRUE,FALSE,229.25844394699274
-121.186,35.962,FORH,Fort Hunter Liggett Primitive Military,MIL,831-386-2612,NA,open to public - do not use our lat/lon - contact them for directions and info,NA,NA,RS,CA,17.6,S,King City,NA,NA,TRUE,NA,229.27710567456717
-121.0,39.52,CARF,Carlton Flat,NF,530-288-3231/530-265-4531,mid apr-mid oct,NA,26,2297,NH ND 16ft VT DW NS RS,CA,9.6,W,Downieville,vault,TRUE,TRUE,FALSE,229.76647949462028
-120.992,39.518,FIDD,Fiddle Creek,NF,530-288-3231/530-265-4531,mid apr-mid oct,NA,18,2339,NH ND VT DW NS RS,CA,5.5,NE,Camptonville,vault,TRUE,TRUE,FALSE,229.95573448713094
-120.981,39.513,INDV,Indian Valley,NF,530-288-3231/530-265-4531,mid apr-mid oct,NA,22,2372,NH ND 25ft VT DW NS RS,CA,5.6,NE,Camptonville,vault,TRUE,TRUE,FALSE,230.01102429616355
-121.274,39.643,FEAF,Feather Falls,NF,NA,NA,may be closed 2013 on - check,5,2500,NH ND VT DW NS NR,CA,0.0,NE,Feather Falls,vault,TRUE,FALSE,FALSE,230.06164722462654
-120.977,39.513,ROCR,Rocky Rest,NF,530-288-3231/530-265-4531,mid apr-mid oct,NA,10,2343,NH ND 20ft VT DW NS RS,CA,5.7,NE,Camptonville,vault,TRUE,TRUE,FALSE,230.20075006560984
-120.988,39.521,CALI,Cal Ida,NF,530-288-3231/530-265-4531,mid apr-mid oct,NA,19,2408,NH ND VT DW NS RS,CA,5.8,NE,Camptonville,vault,TRUE,TRUE,FALSE,230.4227253771959
-121.117,39.584,SLYC,Sly Creek,NA,NA,mid may-mid sep,NA,23,3570,NH ND 40ft VT DW NS,CA,9.8,SW,La Porte,vault,TRUE,NA,FALSE,230.59003046987294
-120.417,39.132,LEWI,Lewis,NF,530-367-2224/530-265-4531,mid may-mid sep,NA,40,5318,NH ND 30ft FTVT DW NS RS,CA,22.9,E,Foresthill,flush_and_vault,TRUE,TRUE,FALSE,230.73613187889978
-120.293,39.014,PLEA,Pleasant,NF,530-644-2349/530-622-5061,NA,no facilities,10,6424,NH NT NW NR N$,CA,NA,NA,NA,none,FALSE,FALSE,NA,231.12937521485497
-119.795,37.752,CRAN,Crane Flat - Yosemite National Park,NP,209-372-0200,early jul-late sep,NA,166,5899,NH FT DW NS RS PA,CA,0.3,E,Crane Flat,flush,TRUE,TRUE,FALSE,231.25234506739136
-120.054,38.706,CAPL,Caples Lake,NF,209-295-4251/530-622-5061,mid jun-mid oct,NA,34,7759,NH ND 40ft VT DW NS NR,CA,4.0,NE,Kit Carson,vault,TRUE,FALSE,FALSE,231.426901571566
-121.139,39.605,GOLT,Golden Trout Crossing,NF,530-534-6500/530-283-2050,NA,NA,5,3583,NH VT DW NR,CA,39.9,NE,Marysville,vault,TRUE,FALSE,NA,231.68914702188556
-120.634,39.322,DONS,Donner Summit Area - Lake Spaulding,UTIL,916-386-5164,NA,NA,25,5049,NH ND NS,CA,2.4,NE,Emigrant Gap,NA,NA,NA,FALSE,231.76126122395326
-120.634,39.322,LAKE,Lake Spaulding,CP,916-386-5164,NA,NA,25,5044,NH ND VT DW NS,CA,24.1,W,Truckee,vault,TRUE,NA,FALSE,231.76126122395326
-120.599,39.299,LODP,Lodgepole,UTIL,916-386-5164,NA,NA,35,5742,NH ND NS,CA,2.8,W,Cisco,NA,NA,NA,FALSE,231.9692227453366
-121.092,39.588,STRA,Strawberry,NA,NA,mid may-mid sep,NA,17,3671,NH ND 40ft VT NW NS,CA,NA,NA,NA,vault,FALSE,NA,FALSE,232.05009676894963
-120.406,39.146,AHAR,Ahart,NF,530-367-2224/530-265-4531,NA,NA,12,5367,NH ND 25ft VT NW NS NR,CA,23.7,E,Foresthill,vault,FALSE,FALSE,FALSE,232.4657105423724
-120.656,39.35,FULL,Fuller Lake,NA,NA,NA,NA,NA,5427,NH,CA,20.2,E,Nevada City,NA,NA,NA,NA,232.7835871834989
-119.871,38.367,FENC,Fence Creek,NF,209-965-3434/209-533-3671,NA,NA,38,5686,NH ND 22ft VT NW NS NR,CA,33.2,NE,Mi-Wuk,vault,FALSE,FALSE,FALSE,233.06492671837853
-119.861,38.355,BOUF,Boulder Flat,NF,209-965-3434/209-533-3671,NA,NA,20,5656,NH ND 22ft VT DW NS NR,CA,32.9,NE,Mi-Wuk,vault,TRUE,FALSE,FALSE,233.5538019333644
-122.949,39.838,WELL,Wells Cabin,NF,530-934-1250/530-934-3316,mid may-mid nov,No RVs,25,6342,NH ND VT DW NS NR N$,CA,16.2,E,Covelo,vault,TRUE,FALSE,FALSE,233.60127624348402
-120.008,38.687,WOOL,Woods Lake,NF,209-295-4251/530-622-5061,mid jul-mid oct,NA,25,8245,NH ND 16ft VT DW NS NR,CA,5.8,E,Kit Carson,vault,TRUE,FALSE,FALSE,234.14173820213878
-119.849,38.353,BRIG,Brightman,NF,209-965-3434/209-533-3671,NA,NA,32,5748,NH ND 22ft VT DW NS NR,CA,33.2,NE,Mi-Wuk,vault,TRUE,FALSE,FALSE,234.50824735777897
-119.913,38.516,MOSL,Mosquito Lakes,NF,209-795-1381/209-533-3671,NA,NA,11,8074,NH ND 40ft VT NW NS NR L$,CA,7.7,NE,Bear Valley,vault,FALSE,FALSE,FALSE,234.5924218929269
-119.895,37.123,HIDV,Hidden View,COE,559-673-5151,all year,NA,55,NA,E DP FT DW SH RS PA,CA,14.5,NE,Madera,flush,TRUE,TRUE,TRUE,234.78893290422823
-123.084,39.825,EELR,Eel River,NF,707-983-6118/530-934-3316,mid mar-mid dec,NA,15,1516,NH ND 21ft VT DW NS NR L$,CA,9.0,E,Covelo,vault,TRUE,FALSE,FALSE,234.79156903776754
-121.011,35.981,WIHI,Williams Hill Rec Area,BLM,831-630-5000,NA,new - shade over tables - some trees,NA,2264,NH ND VT NW NS NR,CA,23.6,NW,San Miguel,vault,FALSE,FALSE,FALSE,235.36129984328045
-119.902,38.517,PACI,Pacific Valley,NF,209-795-1381/209-533-3671,NA,NA,15,7595,NH ND VT NW NS NR,CA,8.3,NE,Bear Valley,vault,FALSE,FALSE,FALSE,235.53296016158552
-119.832,38.342,DARD,Dardanelle,NF,209-965-3434/209-533-3671,NA,NA,28,5784,NH ND 28ft VT DW NS NR,CA,0.1,NE,Dardanelle,vault,TRUE,FALSE,FALSE,235.63069803409127
-120.91,39.54,RAMS,Ramshorn,NF,530-288-3231/530-265-4531,mid apr-mid oct,NA,16,2795,NH ND 20ft VT NW NS RS,CA,4.6,W,Downieville,vault,FALSE,TRUE,FALSE,235.90272421045603
-120.57,39.329,INDS,Indian Springs,NF,530-288-3231/530-265-4531,mid may-mid sep,NA,34,5509,NH ND 25ft VT NW NS RS,CA,5.6,E,Emigrant Gap,vault,FALSE,TRUE,FALSE,236.10516379194948
-119.955,38.639,UBLK,Upper Blue Lake,UTIL,NA,NA,NA,32,8199,NH ND VT DW NS,CA,10.2,W,Markleeville,vault,TRUE,NA,FALSE,236.18509097464366
-122.776,39.885,SUGA,Sugarfoot,NF,530-934-1250/530-934-3316,mid may-mid nov,dispersed,5,3789,NH ND VT NW NS NR N$,CA,35.0,SW,Red Bluff,vault,FALSE,FALSE,FALSE,236.28403710121572
-119.737,37.752,TAMA,Tamarack Flat - Yosemite National Park,NP,209-372-0200,NA,RVs not recommended,63,6247,NH 16ft VT NW NR,CA,NA,NA,NA,vault,FALSE,FALSE,NA,236.36213177509032
-121.269,39.707,MLSP,Milsap Bar,NF,530-534-6500/530-283-2050,mid apr-mid oct,NA,20,1690,NH ND 16ft VT NW NS NR N$,CA,3.9,E,Brush Creek,vault,FALSE,FALSE,FALSE,236.65109328983797
-119.937,38.627,MIDD,Middle Creek/Expansion,CP,NA,NA,NA,35,8200,NH ND NS,CA,49.2,NE,Jackson,NA,NA,NA,FALSE,237.10842224223808
-119.938,38.63,UBLD,Upper Blue Lake Dam,UTIL,NA,NA,NA,25,8192,NH ND VT DW NS,CA,9.6,SW,Markleeville,vault,TRUE,NA,FALSE,237.15707482683942
-120.573,36.232,LOSG,Los Gatos Creek Park,CP,559-488-3004,NA,NA,44,1676,NH ND NS,CA,13.5,NW,Coalinga,NA,NA,NA,FALSE,237.32354109728038
-120.52,39.307,BIGB,Big Bend - Soda Springs,NA,NA,NA,NA,NA,5810,NA,CA,7.6,W,Soda Springs,NA,NA,NA,NA,237.36324040868976
-119.924,38.612,LWBL,Lower Blue Lake,UTIL,NA,NA,NA,16,8140,NH ND 30ft VT DW NS,CA,40.3,S,Tahoe City,vault,TRUE,NA,FALSE,237.517340680621
-120.373,39.188,TALB,Talbot,NF,530-367-2224/530-265-4531,NA,NA,12,5623,VT NW NR,CA,14.0,SW,Truckee,vault,FALSE,FALSE,NA,237.66149213404702
-120.64,39.401,CARR,Carr Lake,NF,530-288-3231/530-265-4531,NA,NA,12,6693,NH ND NS NR,CA,22.3,NE,Nevada City,NA,NA,FALSE,FALSE,237.93588986468245
-119.884,38.543,HERM,Hermit Valley,NF,209-795-1381/209-533-3671,NA,NA,25,7205,NH ND 50ft VT NW NS NR,CA,10.0,NE,Bear Valley,vault,FALSE,FALSE,FALSE,237.99297694091905
-119.803,38.34,PIGF,Pigeon Flat,NF,209-965-3434/209-533-3671,NA,NA,7,5984,NH ND VT NW NS NR L$,CA,31.5,W,Bridgeport,vault,FALSE,FALSE,FALSE,238.02845485654183
-122.767,39.903,KING,Kingsley Glade,NF,530-934-1250/530-934-3316,mid may-mid nov,NA,6,4514,NH ND VT NW NS NR N$,CA,11.7,W,Paskenta,vault,FALSE,FALSE,FALSE,238.16477590519753
-119.88,38.543,GROF,Grouse Flat,NF,209-795-1381/209-533-3671,NA,NA,10,7267,NR,CA,10.2,NE,Bear Valley,NA,NA,FALSE,NA,238.3202749965436
-122.992,39.878,HOWA,Howard Meadows/Lake,NF,707-983-6118/530-934-3316,NA,2 campgrounds,12,3930,NH ND VT NW NS NR,CA,14.8,NE,Covelo,vault,FALSE,FALSE,FALSE,238.70421063861164
-120.609,39.389,GROU,Grouse Ridge,NF,530-288-3231/530-265-4531,NA,NA,9,7464,NH ND VT NW NS NR N$,CA,23.5,E,Nevada City,vault,FALSE,FALSE,FALSE,238.71120534961355
-120.643,39.413,LIND,Lindsey Lake,NF,530-288-3231/530-265-4531,NA,NA,10,6302,NH ND NS NR,CA,22.5,NE,Nevada City,NA,NA,FALSE,FALSE,238.77024113048665
-120.497,39.311,HAMP,Hampshire Rocks,NF,530-288-3231/530-265-4531,mid may-late sep,NA,30,5945,NH ND 30ft VT DW NS RS,CA,6.3,W,Soda Springs,vault,TRUE,TRUE,FALSE,239.0793741871333
-119.79,38.34,EURE,Eureka Valley,NF,209-965-3434/209-533-3671,NA,NA,28,6079,NH ND 22ft VT DW NS NR,CA,2.4,E,Dardanelle,vault,TRUE,FALSE,FALSE,239.12912549851836
-122.685,39.92,WHIL,Whitlock,NF,530-934-1250/530-934-3316,mid may-mid nov,NA,5,4300,NH ND VT DW NS NR N$,CA,7.8,W,Paskenta,vault,TRUE,FALSE,FALSE,239.2464062104209
-120.518,39.333,WOOD,Woodchuck,NF,530-288-3231/530-265-4531,NA,NA,8,6299,NH ND VT NW NS NR,CA,NA,NA,NA,vault,FALSE,FALSE,FALSE,239.53956343366482
-122.092,39.918,WOOB,Woodson Bridge State Rec Area,SRA,530-839-2112,mid may-late dec,NA,41,NA,WES ND 31ft FT DW SH RS,CA,4.7,E,Corning,flush,TRUE,TRUE,TRUE,239.60226296269607
-119.8,38.396,CLAF,Clark Fork,NF,209-965-3434/209-533-3671,NA,NA,88,6171,NH DP 40ft FTVT DW SH NR,CA,37.2,NE,Mi-Wuk,flush_and_vault,TRUE,FALSE,TRUE,239.90923215283044
-122.79,39.921,THRE,Three Prong,NF,530-934-1250/530-934-3316,mid may-mid dec,NA,6,6030,NH ND VT NW NS NR N$,CA,13.2,W,Paskenta,vault,FALSE,FALSE,FALSE,240.40587012870301
-122.986,39.895,LITD,Little Doe,NF,707-983-6118/530-934-3316,mid apr-mid nov,NA,13,3727,NH ND VT NW NS NR L$,CA,15.6,NE,Covelo,vault,FALSE,FALSE,FALSE,240.44234512382886
-120.099,38.945,BAYV,Bayview,NF,530-543-2600/530-543-2600,NA,NA,13,6893,NH ND 23ft VT DW NS NR,CA,6.6,W,South Lake Tahoe,vault,TRUE,FALSE,FALSE,240.81983210125145
-119.788,38.404,SAN1,Sand Flat,NF,209-795-1381/209-533-3671,NA,NA,68,6191,NH ND 40ft VT DW NS NR,CA,37.6,SE,Kyburz,vault,TRUE,FALSE,FALSE,241.16116827193383
-121.312,39.768,ROGE,Rogers Cow Camp (Family ),NF,530-534-6500/530-283-2050,mid may-mid sep,NA,6,4157,NH ND VT NW NS NR,CA,9.8,NE,Berry Creek,vault,FALSE,FALSE,FALSE,241.27420145547006
-119.752,38.324,BAKE,Baker,NF,209-965-3434/209-533-3671,NA,NA,44,6319,NH ND 22ft VT DW NS NR,CA,35.4,NE,Mi-Wuk,vault,TRUE,FALSE,FALSE,241.9198075843166
-119.748,38.317,DEAD,Deadman,NF,209-965-3434/209-533-3671,NA,NA,15,6316,NH ND 28ft VT NW NS NR N$,CA,35.3,NE,Mi-Wuk,vault,FALSE,FALSE,FALSE,242.07611331810128
-120.085,38.952,EMEB,Emerald Bay State Park,SP,530-541-3030,mid may-late dec,As of 2013 - may be CLOSED - check,100,6604,NH FT DW SH RS,CA,5.8,W,South Lake Tahoe,flush,TRUE,TRUE,TRUE,242.26083879158767
-119.807,38.489,HIGL,Highland Lakes,NF,209-795-1381/209-533-3671,NA,NA,35,8635,NH ND VT NW NS NR L$,CA,33.6,NE,Arnold,vault,FALSE,FALSE,FALSE,242.35836317990746
-119.929,38.73,HOPE,Hope Valley,NF,775-882-2766/775-331-6444,mid jul-late aug,NA,24,7182,NH ND 22ft VT DW NS RS,CA,6.6,SW,Woodfords,vault,TRUE,TRUE,FALSE,242.38716003504206
-119.693,37.508,SUMC,Summit Camp,NF,559-877-2218/559-297-0706,NA,NA,10,5597,VT NW NR,CA,12.7,N,Oakhurst,vault,FALSE,FALSE,NA,242.4351844360785
-120.646,39.459,MCMU,McMurray,NF,NA,NA,NA,NA,5902,NR,CA,24.0,NE,Nevada City,NA,NA,FALSE,NA,242.48374386794654
-120.102,38.977,DLBL,D.L. Bliss State Park,SP,530-525-7277,mid may-late dec,NA,170,6296,NH DP FT DW SH RS,CA,1.1,N,Emerald Bay,flush,TRUE,TRUE,TRUE,242.49759601888616
-120.493,39.353,STER,Sterling Lake,NF,530-288-3231/530-265-4531,NA,NA,8,7014,NH ND NS NR,CA,NA,NA,NA,NA,NA,FALSE,FALSE,242.63390197548523
-120.493,39.353,STER,Sterling lake- dispersed,CP,NA,early jul-late oct,NA,NA,7036,NH ND NS L$,CA,NA,NA,NA,NA,NA,NA,FALSE,242.63390197548523
-120.065,38.934,CAMP,Camp Shelley,CP,NA,NA,NA,NA,6268,NH ND 24ft FT DW SH RS,CA,4.7,W,South Lake Tah,flush,TRUE,TRUE,TRUE,242.69088800864938
-119.824,38.538,BLO1,Bloomfield I,NF,209-795-1381/209-533-3671,NA,NA,20,7884,NH ND VT DW SH NR,CA,34.6,NE,Arnold,vault,TRUE,FALSE,TRUE,242.72232772373502
-123.791,39.68,WESS,Westport State Beach,SB,707-937-5804,NA,NA,46,NA,NH ND DW NS NR,CA,3.1,N,Westport,NA,TRUE,FALSE,FALSE,242.79155839330704
-119.679,37.547,WAWO,Wawona  - Yosemite National Park,NP,877-444-6777,mid apr-late dec,NA,93,3940,NH DP 35ft FT DW NS RS PA,CA,1.4,NW,Wawona,flush,TRUE,TRUE,FALSE,243.11044307960216
-120.146,39.041,SUGS,Sugar Pine Point State Park,SP,530-525-7982,mid may-late dec,NA,175,6499,NH DP 32ft FT DW SH RS,CA,2.1,SW,Tahoma,flush,TRUE,TRUE,TRUE,243.25797196349183
-120.051,38.926,FALF,Fallen Leaf,NF,530-543-2600/530-543-2600,mid may-mid oct,NA,206,6404,E ND 40ft FT DW SH RS PA,CA,4.1,W,South Lake Tahoe,flush,TRUE,TRUE,TRUE,243.2713513033396
-119.811,38.524,BLO2,Bloomfield 2,NF,209-795-1381/209-533-3671,NA,NA,20,7999,NH ND VT DW SH NR L$,CA,34.6,NE,Arnold,vault,TRUE,FALSE,TRUE,243.2753928736332
-119.647,37.873,WHIW,White Wolf - Yosemite National Park,NP,209-372-0200,NA,NA,74,7920,NH ND 27ft FT DW NS NR,CA,29.3,W,Lee Vining,flush,TRUE,FALSE,FALSE,244.32139882849305
-120.58,39.438,CANY,Canyon Creek,NF,530-288-3231/530-265-4531,NA,NA,20,6010,NH VT NW NR,CA,NA,NA,NA,vault,FALSE,FALSE,NA,244.43356122484892
-120.043,38.936,CAMR,Camp Richardson Complex,NF,530-543-2600/530-543-2600,NA,4 campgrounds,320,6250,NH ND NS NR,CA,3.6,W,South Lake Tahoe,NA,NA,FALSE,FALSE,244.43783170947552
-121.26,39.782,LITN,Little North Fork,NF,530-534-6500/530-283-2050,NA,NA,6,3799,NH ND 16ft VT NW NS NR N$,CA,12.1,NE,Berry Creek,vault,FALSE,FALSE,FALSE,244.52284278858357
-120.123,39.035,MEEK,Meeks Bay,NF,530-543-2600/530-543-2600,mid may-mid oct,NA,40,6280,NH ND 20ft FT DW NS RS,CA,0.1,NE,Meeks Bay,flush,TRUE,TRUE,FALSE,244.52543874660628
-120.601,39.458,JACK,Jackson Creek,NF,530-288-3231/530-265-4531,NA,NA,14,5679,NH ND NS NR N$,CA,NA,NA,NA,NA,NA,FALSE,FALSE,244.9139564769999
-120.991,35.881,NOSS,North Shore San Antonio,CP,831-755-4895,NA,NA,271,NA,FT DW,CA,10.7,W,Bradley,flush,TRUE,NA,NA,245.77937237357247
-122.991,39.95,HAMM,Hammerhorn Lake,NF,707-983-6118/530-934-3316,mid may-mid dec,NA,9,3619,NH ND VT DW NS NR L$,CA,42.1,NE,Willits,vault,TRUE,FALSE,FALSE,246.50625772212166
-120.501,39.408,MEAL,Meadow Lake,NF,530-994-3401/530-265-4531,NA,NA,25,7320,NH ND VT NW NS NR,CA,17.8,W,Truckee,vault,FALSE,FALSE,FALSE,246.56160901191785
-120.744,39.567,UNIO,Union Flat,NF,530-288-3231/530-265-4531,mid apr-mid oct,NA,11,3481,NH ND 40ft VT DW NS RS,CA,4.5,E,Downieville,vault,TRUE,TRUE,FALSE,246.6374604760259
-119.624,37.663,BRIV,Bridalveil Creek - Yosemite National Park,NP,209-372-0200,NA,NA,110,7034,NH 35ft FT DW NR,CA,NA,NA,NA,flush,TRUE,FALSE,NA,246.7644212398513
-120.159,39.114,KASP,Kaspian,NF,530-543-2600/530-543-2600,mid may-mid oct,NA,9,6316,NH ND 20ft FT DW NS RS,CA,15.5,NW,South Lake Tahoe,flush,TRUE,TRUE,FALSE,247.04005110786875
-119.896,38.776,KITC,Kit Carson,NF,775-882-2766/775-331-6444,NA,NA,12,6893,NH ND 22ft VT DW NS NR,CA,8.5,NW,Markleeville,vault,TRUE,FALSE,FALSE,247.17746691687137
-119.786,38.588,SIL1,Silver Creek-Hwy 4,NF,775-882-2766/775-331-6444,mid jun-late aug,NA,26,6864,NH ND 22ft VT DW NS RS,CA,7.3,S,Markleeville,vault,TRUE,TRUE,FALSE,247.7389222837424
-119.634,37.492,SUMD,Summerdale,NF,559-877-2218/559-297-0706,mid may-late sep,NA,30,4980,NH ND 40ft VT DW NS RS,CA,11.4,N,Oakhurst,vault,TRUE,TRUE,FALSE,247.8484556525414
-119.838,38.7,GROV,Grover Hot Springs State Park,SP,530-694-2248,mid may-late dec,NA,76,5942,NH ND 27ft FT DW SH RS,CA,3.2,W,Markleeville,flush,TRUE,TRUE,TRUE,248.2198435732778
-120.158,39.139,WILK,William Kent,NF,530-543-2600/530-543-2600,mid may-mid oct,NA,95,6325,NH DP 24ft FT DW NS RS,CA,2.2,S,Tahoe City,flush,TRUE,TRUE,FALSE,248.76178424840668
-119.595,37.828,YOSE,Yosemite Creek - Yosemite National Park,NP,209-372-0200,NA,No RVs,75,7251,NH VT NW NR,CA,NA,NA,NA,vault,FALSE,FALSE,NA,248.80167895631035
-121.01,39.73,BLAT,Black Rock Tent(Family ),NF,530-534-6500/530-283-2050,mid may-mid oct,NA,20,5108,NH DP 22ft VT DW NS NR,CA,3.6,NW,La Porte,vault,TRUE,FALSE,FALSE,249.2200331572433
-119.975,38.942,CAML,Campground by the Lake,CP,530--542-6096,NA,NA,170,6306,E DP 40ft FT DW SH,CA,NA,NA,South Lake Tahoe,flush,TRUE,NA,TRUE,249.84422350210133
-120.98,39.724,PENI,Peninsula Tent (Family ),NF,530-534-6500/530-283-2050,mid may-mid oct,Tent Only,25,5095,NH ND FT DW NS NR,CA,2.9,N,La Porte,flush,TRUE,FALSE,FALSE,249.93764265589445
-119.975,38.944,ELDO,El Dorado,CP,NA,NA,NA,NA,6248,NA,CA,0.3,NE,South Lake Tahoe,NA,NA,NA,NA,249.9568808960863
-120.986,39.727,WYAN,Wyandotte,NF,530-534-6500/530-283-2050,mid may-mid oct,NA,28,5154,NH ND 22ft FT DW NS NR,CA,3.1,N,La Porte,flush,TRUE,FALSE,FALSE,249.9643922322965
-120.553,39.486,FIND,Findley,NF,530-994-3401/530-265-4531,mid jun-mid oct,NA,15,6214,NH DP 30ft FT DW NS RS,CA,12.3,SW,Sierraville,flush,TRUE,TRUE,FALSE,249.9697749506723
-120.551,39.486,FIRT,Fir Top,NF,530-994-3401/530-265-4531,mid jun-mid oct,NA,12,6122,NH DP 30ft FT DW NS RS,CA,12.1,SW,Sierraville,flush,TRUE,TRUE,FALSE,250.08300098673718
-120.98,39.726,TOOM,Tooms RV,NF,NA,NA,open RV parking area - unknown facilities,NA,NA,NH ND NS NR,CA,3.0,N,La Porte,NA,NA,FALSE,FALSE,250.12901195044606
-120.548,39.485,WOOC,Woodcamp,NF,530-994-3401/530-265-4531,mid jun-mid oct,NA,20,6168,NH ND 34ft FTVT DW NS RS,CA,12.0,SW,Sierraville,flush_and_vault,TRUE,TRUE,FALSE,250.169462531245
-119.845,38.764,CRYS,Crystal Springs,NF,775-882-2766/775-331-6444,NA,NA,25,6138,NH ND 22ft VT DW NS NR,CA,48.3,NW,Bridgeport,vault,TRUE,FALSE,FALSE,250.60151346914424
-119.575,37.743,UPPV,Upper River - Yosemite National Park,NP,209-372-0200,NA,NA,NA,4072,NR,CA,NA,NA,NA,NA,NA,FALSE,NA,250.66153808504995
-120.66,39.565,LOGA,Loganville,NF,530-288-3231/530-265-4531,mid apr-mid oct,NA,19,4072,NH ND VT DW NS RS,CA,1.4,W,Sierra City,vault,TRUE,TRUE,FALSE,250.85234599884782
-119.571,37.742,LOWE,Lower Pines - Yosemite National Park,NP,209-372-0200,early apr-late oct,NA,60,4091,NH 35ft FT DW NS RS PA,CA,1.3,E,Yosemite Village,flush,TRUE,TRUE,FALSE,251.0172177914511
-120.97,39.731,LITB,Little Beaver,NF,530-534-6500/530-283-2050,NA,NA,120,5118,NH ND 40ft FT DW NS NR,CA,3.5,N,La Porte,flush,TRUE,FALSE,FALSE,251.0426498193897
-119.566,37.809,PORC,Porcupine Flat - Yosemite National Park,NP,209-372-0200,NA,NA,52,8146,NH 35ft VT NW NR,CA,NA,NA,NA,vault,FALSE,FALSE,NA,251.3462601109198
-119.567,37.742,NORP,North Pines - Yosemite National Park,NP,209-372-0200,mid apr-late sep,NA,81,4052,NH ND 35ft FT DW NS RS PA,CA,1.4,E,Yosemite Village,flush,TRUE,TRUE,FALSE,251.36961872647626
-120.971,39.735,REDF,Red Feather,NF,530-534-6500/530-283-2050,mid jun-late aug,NA,60,5066,NH DP 22ft VT DW NS RS PA,CA,3.7,N,La Porte,vault,TRUE,TRUE,FALSE,251.38157321432664
-120.201,39.223,SIL2,Silver Creek-Truckee,NF,530-587-3558/530-265-4531,mid may-late sep,NA,27,6060,NH ND 25ft VT DW NS RS,CA,4.8,NW,Tahoe City,vault,TRUE,TRUE,FALSE,251.55956273998544
-119.563,37.735,UPPN,Upper Pines - Yosemite National Park,NP,209-372-0200,mid mar-late dec,NA,238,4065,NH DP 35ft FT DW NS RS PA,CA,1.8,SE,Yosemite Village,flush,TRUE,TRUE,FALSE,251.74634223950463
-120.967,39.738,RUNN,Running Deer,NF,530-534-6500/530-283-2050,mid jun-late aug,NA,40,5230,NH DP 40ft FT DW NS RS PA,CA,3.9,N,La Porte,flush,TRUE,TRUE,FALSE,251.8426560060467
-119.804,38.722,TURT,Turtle Rock Park,CP,NA,NA,NA,28,6106,NH ND 34ft VT DW SH L$,CA,0.0,SE,Turtle Rock Park,vault,TRUE,NA,TRUE,251.91009654348866
-120.532,39.501,EASM,East Meadow,NF,530-994-3401/530-265-4531,early jun-late aug,NA,46,6184,NH DP 30ft FT DW NS RS PA,CA,22.1,NW,Truckee,flush,TRUE,TRUE,FALSE,252.41259314865312
-120.514,39.49,LITL,Little Lasier Meadow,NF,530-994-3401/530-265-4531,early jun-mid oct,NA,12,6526,NH DP NS RS,CA,10.5,SW,Sierraville,NA,NA,TRUE,FALSE,252.52177093094917
-120.534,39.506,PASS,Pass Creek,NF,530-994-3401/530-265-4531,early jun-mid oct,NA,30,6191,NH DP 22ft FTVT DW NS RS,CA,22.4,NW,Truckee,flush_and_vault,TRUE,TRUE,FALSE,252.7173775545543
-120.135,39.175,TAHO,Tahoe State Rec Area,SRA,530-583-3074,mid may-late dec,NA,27,6270,NH ND 21ft FT DW SH RS,CA,0.7,NE,Tahoe City,flush,TRUE,TRUE,TRUE,252.75496988954856
-119.582,37.468,BIGY,Big Sandy,NF,559-877-2218/559-297-0706,NA,NA,23,5912,NH ND 16ft VT NW NS NR,CA,10.3,N,Oakhurst,vault,FALSE,FALSE,FALSE,252.7865110549525
-119.776,38.698,MARK,Markleeville,NF,775-882-2766/775-331-6444,NA,NA,10,5577,NH ND 20ft VT DW NS NR,CA,0.3,NE,Markleeville,vault,TRUE,FALSE,FALSE,253.08385519808843
-119.584,37.432,NELD,Nelder Grove,NF,559-877-2218/559-297-0706,NA,NA,10,5397,NH ND 22ft VT NW NS NR N$,CA,48.5,N,Fresno,vault,FALSE,FALSE,FALSE,253.2407504330693
-120.209,39.259,GOSM,Goose Meadow,NF,530-587-3558/530-265-4531,mid may-late sep,NA,24,5984,NH ND 25ft VT DW NS RS,CA,4.9,S,Truckee,vault,TRUE,TRUE,FALSE,253.56412911433924
-119.953,38.981,NEVA,Nevada Beach,NF,530-543-2600/530-543-2600,early may-mid oct,NA,54,6253,NH ND 24ft FTVT DW NS RS,NV,1.5,NW,Stateline,flush_and_vault,TRUE,TRUE,FALSE,253.69784265648775
-119.733,36.975,LOSL,Lost Lake,CP,559-488-3004,NA,NA,42,NA,36ft FT DW,CA,15.9,N,Fresno,flush,TRUE,NA,NA,253.9511489538833
-120.601,39.566,WILP,Wild Plum,NF,530-288-3231/530-265-4531,early jun-mid oct,NA,49,4452,NH ND 25ft VT DW NS RS,CA,1.7,E,Sierra City,vault,TRUE,TRUE,FALSE,254.1042093850372
-120.119,39.184,LAKF,Lake Forest,CP,NA,NA,NA,20,6251,NH ND NS NR,CA,18.5,NW,South Lake Tahoe,NA,NA,FALSE,FALSE,254.46026873431111
-119.783,38.744,INDR,Indian Creek,BLM,NA,NA,hot showers,NA,5663,NH DP 30ft FTVT DW SH NR,CA,3.5,N,Markleeville,flush_and_vault,TRUE,FALSE,TRUE,254.57188586090112
-119.784,38.746,INDI,Indian Creek,BLM,775-885-6107,NA,NA,20,5629,NH DP FT DW SH NR,NV,3.0,SE,Woodfords,flush,TRUE,FALSE,TRUE,254.58360636264732
-119.697,38.578,WOLF,Wolf Creek,NF,530-644-2349/530-622-5061,early jun-late aug,NA,45,4931,NH ND 35ft VT DW NS RS,CA,49.6,E,Pollock Pines,vault,TRUE,TRUE,FALSE,254.64035910186658
-120.935,35.814,SOUA,South Shore San Antonio,CP,NA,NA,3 campgrounds,NA,NA,E DP FT DW SH,CA,19.7,NW,Paso Robles,flush,TRUE,NA,TRUE,254.75574019859013
-119.72,38.632,CENT,Centerville Flat,NF,775-882-2766/775-331-6444,NA,NA,20,5873,NH ND NS NR N$,CA,NA,NA,NA,NA,NA,FALSE,FALSE,254.84800220579024
-121.207,39.867,GRIF,Grizzly Creek,NF,530-283-0555/530-283-2050,mid apr-mid oct,NA,8,5328,NH ND 35ft VT DW NS NR,CA,14.6,W,Quincy,vault,TRUE,FALSE,FALSE,254.99317790161976
-119.565,37.399,GREY,Greys Mountain,NF,559-877-2218/559-297-0706,NA,NA,27,5344,NH ND 22ft VT NW NS NR,CA,6.7,NE,Oakhurst,vault,FALSE,FALSE,FALSE,255.52660345483392
-119.561,37.404,SOQU,Soquel,NF,559-877-2218/559-297-0706,mid may-late sep,NA,14,5325,NH ND 27ft VT NW NS RS,CA,7.1,NE,Oakhurst,vault,FALSE,TRUE,FALSE,255.7769214180897
-119.548,37.456,FRES,Fresno Dome,NF,559-877-2218/559-297-0706,NA,NA,17,6542,NH ND VT NW NS NR,CA,10.4,NE,Oakhurst,vault,FALSE,FALSE,FALSE,255.96158166708614
-120.241,39.322,DONN,Donner Memorial State Park,SP,530-582-7892,mid may-late dec,NA,54,5971,NH ND 28ft FT DW SH RS,CA,3.1,W,Truckee,flush,TRUE,TRUE,TRUE,256.0241065270053
-119.682,37.025,MILT,Millerton Lake State Rec Area,SRA,559-822-2332,all year,NA,148,NA,NH DP 36ft FT DW SH RS,CA,3.1,NE,Friant,flush,TRUE,TRUE,TRUE,256.25713060220096
-121.174,39.868,HASK,Haskins Valley,CP,NA,NA,NA,38,5194,NH ND FT DW NS NR,CA,NA,NA,NA,flush,TRUE,FALSE,FALSE,256.28973405784984
-119.544,37.441,KELT,Kelty Meadow,NF,559-877-2218/559-297-0706,mid may-late sep,NA,14,5909,NH ND VT NW NS RS,CA,9.7,NE,Oakhurst,vault,FALSE,TRUE,FALSE,256.5716442025859
-120.648,39.624,PACK,Packsaddle,NF,530-288-3231/530-265-4531,early jun-mid oct,NA,24,6135,NH ND 30ft VT DW NS RS,CA,4.0,N,Sierra City,vault,TRUE,TRUE,FALSE,256.65960689624836
-120.204,39.3,GRAT,Granite Flat,NF,530-587-3558/530-265-4531,mid may-late sep,NA,75,5876,NH ND 35ft VT DW NS RS,CA,2.2,SW,Truckee,vault,TRUE,TRUE,FALSE,256.8307283902477
-119.569,37.315,FORS,Forks,NF,559-877-2218/559-297-0706,mid apr-mid sep,NA,29,3527,NH DP 31ft FT DW NS NR,CA,4.5,E,Oakhurst,flush,TRUE,FALSE,FALSE,257.0050053385956
-120.643,39.628,BERG,Berger Creek,NF,530-288-3231/530-265-4531,early jun-mid oct,NA,9,6017,NH 16ft VT NW RS,CA,NA,NA,NA,vault,FALSE,TRUE,NA,257.27323191537585
-120.638,39.631,DIAB,Diablo,NF,530-288-3231/530-265-4531,early jun-mid oct,NA,18,5915,NH ND 40ft VT NW NS RS,CA,NA,NA,NA,vault,FALSE,TRUE,FALSE,257.7987794752978
-120.615,39.62,SARD,Sardine,NF,530-288-3231/530-265-4531,early jun-mid oct,NA,27,5751,NH ND 28ft VT DW NS RS,CA,3.8,N,Sierra City,vault,TRUE,TRUE,FALSE,258.0428760278669
-121.215,39.902,LOWB,Lower Bucks,NF,530-283-0555/530-283-2050,NA,NA,7,5079,NH ND 26ft VT NW NS NR,CA,14.4,W,Quincy,vault,FALSE,FALSE,FALSE,258.24499072079243
-119.539,37.37,CHIL,Chilkoot,NF,559-877-2218/559-297-0706,mid may-late sep,NA,14,4783,NH ND 33ft VT NW NS RS,CA,6.7,NE,Oakhurst,vault,FALSE,TRUE,FALSE,258.38098429003156
-121.202,39.901,SUND,Sundew,NF,530-283-0555/530-283-2050,NA,NA,19,5299,NH ND 22ft VT DW NS NR,CA,13.7,W,Quincy,vault,TRUE,FALSE,FALSE,258.60288536377425
-120.614,39.626,SALM,Salmon Creek,NF,530-288-3231/530-265-4531,early jun-mid oct,NA,32,5837,NH ND 25ft VT DW NS RS,CA,4.3,N,Sierra City,vault,TRUE,TRUE,FALSE,258.62070847779756
-119.552,38.333,LEAM,Leavitt Meadows,NF,760-932-7070/775-331-6444,NA,NA,18,7444,NH ND 40ft VT DW NS NR,CA,13.2,S,Walker,vault,TRUE,FALSE,FALSE,259.16585187046763
-119.544,37.308,LUPN,Lupine/Cedar Bluff,NF,559-877-2218/559-297-0706,NA,NA,113,3448,NH DP 36ft FT DW NS NR,CA,5.9,E,Oakhurst,flush,TRUE,FALSE,FALSE,259.3361172975488
-121.142,39.889,WHIH,Whitehorse,NF,530-283-0555/530-283-2050,NA,NA,20,5295,NH ND 43ft VT DW NS NR,CA,10.9,W,Quincy,vault,TRUE,FALSE,FALSE,259.57344321952337
-123.728,39.878,STAH,Standish - Hickey State Rec Area,SRA,707-925-6482,mid may-late dec,NA,162,NA,NH ND 27ft FT DW SH RS,CA,1.1,NW,Leggett,flush,TRUE,TRUE,TRUE,259.6472797338126
-119.542,37.302,SPRC,Spring Cove,NF,559-877-2218/559-297-0706,mid may-mid sep,NA,65,3491,NH DP 30ft FT DW NS RS,CA,6.2,E,Oakhurst,flush,TRUE,TRUE,FALSE,259.65300694911514
-123.844,39.837,USAL,Usal Beach - Sinkyone Wilderness State Park,SP,707-986-7711,all year,NA,NA,NA,NH ND VT NW NS NR,CA,13.9,S,Whitethorn,vault,FALSE,FALSE,FALSE,260.21277085930114
-119.535,37.297,WISP,Wishon Point,NF,559-877-2218/559-297-0706,early may-mid sep,NA,47,3468,NH DP 33ft FT DW NS RS,CA,6.6,E,Oakhurst,flush,TRUE,TRUE,FALSE,260.3796185186113
-121.188,39.914,MILK,Mill Creek,NF,530-283-0555/530-283-2050,NA,NA,9,5322,NH ND 58ft VT DW NS NR,CA,12.9,W,Quincy,vault,TRUE,FALSE,FALSE,260.41335819271836
-120.626,39.668,SNAG,Snag Lake,NF,530-288-3231/530-265-4531,NA,NA,14,6673,NH 16ft VT NW NR,CA,9.9,W,Calpine,vault,FALSE,FALSE,NA,261.6900222792831
-120.558,39.631,SIER,Sierra,NF,530-288-3231/530-265-4531,early jun-mid oct,NA,16,5748,NH ND 22ft VT NW NS RS,CA,6.0,NE,Sierra City,vault,FALSE,TRUE,FALSE,262.03940936232414
-120.885,35.759,LKNA,Lake Nacimiento,CP,831-755-4899,all year,8 campgrounds,337,NA,WES DP FT DW SH RS,CA,15.2,NW,Paso Robles,flush,TRUE,TRUE,TRUE,262.31423527266594
-120.288,39.451,SPPC,Independence Lake,UTIL,NA,NA,NA,20,6947,NH ND VT DW NS NR,CA,10.2,NW,Truckee,vault,TRUE,FALSE,FALSE,262.8137073491426
-120.661,39.701,LAKB,Lakes Basin Family .,NF,530-836-2575/530-283-2050,mid may-late aug,NA,25,6352,NH ND VT DW NS RS,CA,5.1,SW,Graeagle,vault,TRUE,TRUE,FALSE,262.83880343025004
-120.543,39.631,CHAP,Chapman Creek,NF,530-288-3231/530-265-4531,early jun-mid oct,NA,27,5925,NH ND 25ft VT DW NS RS,CA,6.6,NE,Sierra City,vault,TRUE,TRUE,FALSE,262.8474131307048
-119.496,37.332,WHIS,Whiskers,NF,559-877-2218/559-297-0706,NA,NA,8,5351,NH ND 20ft VT NW NS NR,CA,8.4,E,Oakhurst,vault,FALSE,FALSE,FALSE,262.9421120024405
-121.508,40.034,WESR,West Branch,NF,NA,NA,NA,15,4925,20ft VT DW NR,CA,15.8,N,Magalia,vault,TRUE,FALSE,NA,262.9520146860222
-121.467,40.028,PHLB,Philbrook - Feather River,UTIL,NA,NA,NA,NA,5561,NH ND NS,CA,20.3,NE,Paradise,NA,NA,NA,FALSE,263.4110488573705
-120.257,39.435,SAGC,Sagehen Creek,NF,530-587-3558/530-265-4531,NA,NA,11,6535,NH ND VT NW NS NR N$,CA,8.4,NW,Truckee,vault,FALSE,FALSE,FALSE,263.49689562409617
-120.121,39.323,ALPM,Alpine Meadows,COE,530-587-8113,NA,NA,NA,5842,NH ND VT NS NR,CA,3.3,E,Truckee,vault,NA,FALSE,FALSE,263.94563002508715
-120.121,39.323,MARC,Martis Creek Lake,NA,NA,NA,NA,NA,5827,30ft VT DW,CA,3.3,E,Truckee,vault,TRUE,NA,NA,263.94563002508715
-121.024,39.89,DEAN,Deanes Valley,NF,530-283-0555/530-283-2050,mid apr-mid sep,NA,7,4390,NH ND 24ft VT NW NS NR N$,CA,5.2,SW,Quincy,vault,FALSE,FALSE,FALSE,264.2107730281524
-120.491,39.616,YUBA,Yuba Pass,NF,530-994-3401/530-265-4531,early jun-mid oct,NA,20,6765,NH ND 35ft VT DW NS RS,CA,6.8,W,Sierraville,vault,TRUE,TRUE,FALSE,264.40089143512665
-119.468,37.361,GAGG,Gaggs Camp,NF,559-877-2218/559-297-0706,NA,NA,12,5906,NH ND 16ft VT NW NS NR,CA,10.2,E,Oakhurst,vault,FALSE,FALSE,FALSE,264.7458784668009
-122.204,40.156,SYCG,Sycamore Grove,NF,530-934-1250/530-934-3316,all year,NA,30,NA,E ND 40ft DW SH RS,CA,2.3,SE,Red Bluff,NA,TRUE,TRUE,TRUE,264.99558703069766
-122.829,40.141,TOMH,Tomhead Saddle,NF,530-628-5227/530-226-2500,NA,NA,17,5686,NH ND VT NW NS NR,CA,NA,NA,NA,vault,FALSE,FALSE,FALSE,265.059381225117
-120.171,39.384,LAKD,Lakeside,NF,530-587-3558/530-265-4531,mid may-late sep,NA,40,5748,NH ND 35ft VT DW NS RS,CA,3.9,N,Truckee,vault,TRUE,TRUE,FALSE,265.1050198783011
-120.16,39.378,PROS,Prosser,NF,530-587-3558/530-265-4531,mid may-late sep,NA,29,5807,NH ND 32ft VT DW NS RS,CA,3.7,N,Truckee,vault,TRUE,TRUE,FALSE,265.37296197018776
-120.702,39.757,PLUE,Plumas - Eureka State Park,SP,530-836-2380,mid may-late dec,Tent only,64,5548,NH DP 30ft FT DW SH RS,CA,4.8,W,Blairsden,flush,TRUE,TRUE,TRUE,265.87042133645804
-119.512,37.152,SMAL,Smalley Cove,NF,559-877-2218,NA,NA,NA,NA,NH ND 30ft NS L$,CA,5.1,N,Auberry,NA,NA,NA,FALSE,266.3289368327224
-121.559,40.078,BUTM,Butte Meadows,NF,530-258-2141/530-257-2151,NA,NA,13,4364,NH ND 30ft VT DW NS NR,CA,23.4,SW,Chester,vault,TRUE,FALSE,FALSE,266.3362221506511
-119.476,38.364,SONB,Sonora Bridge,NF,760-932-7070/775-331-6444,NA,NA,23,6709,NH ND 40ft VT DW NS NR,CA,10.4,S,Walker,vault,TRUE,FALSE,FALSE,266.4170991090548
-121.586,40.088,SOD3,Soda Springs,NA,NA,NA,NA,NA,3740,NH ND NS,CA,15.6,N,Forest Ranch,NA,NA,NA,FALSE,266.7573803419288
-121.135,39.959,SILV,Silver Lake (Family ),NF,530-283-0555/530-283-2050,NA,NA,7,5810,NH ND VT NW NS RS,CA,10.1,W,Quincey,vault,FALSE,TRUE,FALSE,266.851381315522
-119.449,38.3,OBSI,Obsidian,NF,760-932-7070/775-331-6444,early jun-late sep,NA,18,7697,NH ND 30ft VT NW NS RS,CA,14.9,S,Walker,vault,FALSE,TRUE,FALSE,267.1857938092611
-119.409,37.502,UPPC,Upper Chiquito,NF,559-877-2218/559-297-0706,NA,NA,11,7014,NH ND 20ft VT NW NS NR N$,CA,17.9,NE,Oakhurst,vault,FALSE,FALSE,FALSE,267.41250647469053
-120.315,39.543,COLD,Cold Creek,NF,530-994-3401/530-265-4531,mid apr-mid oct,NA,11,5761,NH ND 20ft VT DW NS RS,CA,4.3,SE,Sierraville,vault,TRUE,TRUE,FALSE,268.44985615258366
-120.719,35.777,CAMR,Camp Roberts Military,MIL,805-238-8312,NA,military only - do not use our lat/lon - contact them for directions and info,NA,NA,RS,CA,2.2,NW,San Miguel,NA,NA,TRUE,NA,268.6874518355971
-120.244,39.492,UPPL,Upper Little Truckee,NF,530-994-3401/530-265-4531,mid apr-mid oct,NA,26,6220,NH ND 35ft VT DW NS RS,CA,9.4,SE,Sierraville,vault,TRUE,TRUE,FALSE,268.7041574048756
-120.236,39.486,LOWT,Lower Little Truckee,NF,530-994-3401/530-265-4531,mid apr-mid oct,NA,15,6148,NH ND 25ft VT DW NS RS,CA,10.0,SE,Sierraville,vault,TRUE,TRUE,FALSE,268.7299186292279
-120.317,39.549,COTW,Cottonwood,NF,530-994-3401/530-265-4531,NA,NA,48,5663,NH ND 25ft VT DW NS NR,CA,3.9,SE,Sierraville,vault,TRUE,FALSE,FALSE,268.8135030086945
-119.44,37.286,WHIF,Whisky Falls,NF,559-877-2218/559-297-0706,NA,NA,18,5869,NH VT NW NR,CA,5.4,NE,North Fork,vault,FALSE,FALSE,NA,268.86691309074575
-119.456,38.394,CHRF,Chris Flat,NF,760-932-7070/775-331-6444,NA,NA,15,6847,NH ND 35ft VT DW NS NR,CA,8.4,S,Walker,vault,TRUE,FALSE,FALSE,268.89837731594724
-121.121,35.583,SANS,San Simeon State Park,SP,805-927-2020,mid may-late dec,NA,115,NA,NH DP 35ft FT DW SH RS,CA,2.6,NW,Cambria,flush,TRUE,TRUE,TRUE,269.4990259962305
-119.359,37.871,TUOL,Tuolumne Meadows - Yosemite National Park,NP,877-444-6777,early jul-late sep,NA,304,8665,NH DP 35ft FT DW NS RS PA,CA,14.3,SW,Lee Vining,flush,TRUE,TRUE,FALSE,269.64634174969376
-121.223,40.02,GANS,Gansner Bar,NF,530-283-0555/530-283-2050,mid may-mid sep,NA,14,2372,NH ND 32ft FT DW NS NR,CA,15.7,W,Quincy,flush,TRUE,FALSE,FALSE,269.97561492490576
-119.452,38.424,BOOT,Bootleg,NF,760-932-7070/775-331-6444,NA,NA,63,7028,NH ND 45ft FT DW NS NR,CA,10.3,S,Coleville,flush,TRUE,FALSE,FALSE,270.0551537477615
-120.104,39.395,BOCA,Boca,NF,530-587-3558/530-265-4531,mid may-late sep,NA,20,5633,NH ND 35ft VT DW NS RS,CA,6.3,NE,Truckee,vault,TRUE,TRUE,FALSE,270.2464502736684
-121.497,40.103,CHER,Cherry Hill,NF,530-258-2141/530-257-2151,NA,NA,26,4816,NH ND 30ft VT DW NS NR,CA,19.8,SW,Chester,vault,TRUE,FALSE,FALSE,270.5377761607935
-119.384,37.413,LOWC,Lower Chiquito,NF,559-877-2218/559-297-0706,NA,NA,9,4902,NH ND 25ft VT NW NS NR,CA,50.8,NE,Fresno,vault,FALSE,FALSE,FALSE,271.04971927226086
-119.389,37.381,SOD1,Soda Springs,NF,559-877-2218/559-297-0706,NA,NA,22,4462,NH ND 50ft VT NW NS NR,CA,12.4,NE,North Fork,vault,FALSE,FALSE,FALSE,271.21930524091795
-119.454,37.145,REDI,Redinger,NF,NA,NA,no facilities,5,NA,NH ND 25ft VT NW NS NR N$,CA,32.7,NE,Fresno,vault,FALSE,FALSE,FALSE,271.49757443684547
-121.22,40.04,NORM,North Fork,NF,530-283-0555/530-283-2050,NA,NA,20,2448,NH DP 32ft NS NR,CA,16.1,NW,Quincy,NA,NA,FALSE,FALSE,272.1207146304997
-121.218,40.046,QUEE,Queen Lily,NF,530-283-0555/530-283-2050,NA,NA,12,2474,NH ND 16ft VT DW NS NR,CA,16.2,NW,Quincy,vault,TRUE,FALSE,FALSE,272.8009336000883
-121.015,39.975,SNAK,Snake Lake (Family ),NF,530-283-0555/530-283-2050,NA,NA,7,4065,NH ND VT NW NS NR N$,CA,4.5,NW,Quincy,vault,FALSE,FALSE,FALSE,272.94736134539846
-120.086,39.42,BOCR,Boca Rest,NF,530-587-3558/530-265-4531,mid may-late sep,NA,29,5627,NH ND 35ft VT NW NS RS,CA,8.2,NE,Truckee,vault,FALSE,TRUE,FALSE,273.2392215406773
-119.522,38.696,TOPA,Topaz Lake,CP,775-266-3343,NA,NA,70,5030,WE DP 35ft FTVT DW SH,NV,NA,NA,NA,flush_and_vault,TRUE,NA,TRUE,273.48282265538074
-120.131,39.464,LOGG,Logger,NF,530-587-3558/530-265-4531,mid may-late sep,NA,252,6033,NH DP 50ft VT DW NS RS,CA,9.8,N,Truckee,vault,TRUE,TRUE,FALSE,273.6149655664295
-119.362,37.373,PLAC,Placer,NF,559-877-2218/559-297-0706,NA,NA,7,4114,NH ND 30ft VT NW NS NR,CA,48.8,NE,Fresno,vault,FALSE,FALSE,FALSE,273.7305538378698
-120.235,39.557,BEAL,Bear Valley,NF,530-994-3401/530-265-4531,NA,NA,31,6644,NH VT DW NR,CA,7.4,E,Sierraville,vault,TRUE,FALSE,NA,274.35247515873533
-120.089,39.438,BOYI,Boyington Mill,NF,530-587-3558/530-265-4531,mid may-late sep,NA,13,5656,NH ND 35ft VT NW NS RS,CA,9.1,NE,Truckee,vault,FALSE,TRUE,FALSE,274.3664370143966
-121.712,40.184,BLAC,Black Rock,NF,530-258-2141/530-257-2151,NA,NA,5,2172,PT NW NR,CA,NA,NA,NA,pit,FALSE,FALSE,NA,274.37809598588905
-119.348,38.237,BUCE,Buckeye,NF,760-932-7070/775-331-6444,NA,NA,71,6959,NH ND 45ft VT DW NS NR,CA,6.5,W,Bridgeport,vault,TRUE,FALSE,FALSE,274.565918248646
-120.075,39.429,BOCS,Boca Springs,NF,530-587-3558/530-265-4531,mid may-late sep,NA,30,5945,NH ND NS RS,CA,9.1,NE,Truckee,NA,NA,TRUE,FALSE,274.6100865114014
-119.352,37.365,SWEE,Sweetwater,NF,559-877-2218/559-297-0706,mid may-late sep,NA,10,3904,NH ND 16ft VT NW NS RS,CA,12.7,NE,North Fork,vault,FALSE,TRUE,FALSE,274.7619005503594
-121.074,40.018,HALL,Hallsted,NF,530-283-0555/530-283-2050,early jun-late aug,NA,20,2815,NH ND 22ft VT DW NS RS PA,CA,8.7,NW,Quincy,vault,TRUE,TRUE,FALSE,275.00115526587865
-119.336,37.4,LITJ,Little Jackass,NF,559-877-2218/559-297-0706,NA,NA,6,4944,NH ND 20ft VT NW NS NR N$,CA,NA,NA,NA,vault,FALSE,FALSE,FALSE,275.4797283305631
-119.323,38.17,LOWL,Lower Twin Lake,NF,760-932-7070/775-331-6444,mid may-mid sep,NA,17,7234,NH ND 40ft FT DW NS RS,CA,7.7,SW,Bridgeport,flush,TRUE,TRUE,FALSE,275.56406318150187
-119.361,37.292,ROCC,Rock Creek,NF,559-877-2218/559-297-0706,mid may-late sep,NA,28,4406,NH ND 45ft VT DW NS RS,CA,9.2,NE,North Fork,vault,TRUE,TRUE,FALSE,275.56781620541875
-119.322,38.179,PAHA,Paha,NF,760-932-7070/775-331-6444,mid may-mid sep,NA,26,7054,NH ND 40ft FT DW NS RS,CA,7.3,SW,Bridgeport,flush,TRUE,TRUE,FALSE,275.79503013718204
-119.323,38.185,ROBC,Robinson Creek,NF,760-932-7070/775-331-6444,mid may-mid oct,NA,60,7057,NH ND 45ft FTVT DW NS RS,CA,7.0,SW,Bridgeport,flush_and_vault,TRUE,TRUE,FALSE,275.8065130755767
-123.793,40.018,RICH,Richardson Grove State Park,SP,707-247-3318,mid may-late dec,3 campgrounds,NA,NA,NH RS,CA,5.7,S,Garberville,NA,NA,TRUE,NA,276.04792745405223
-119.321,38.2,HONE,Honeymoon,NF,760-932-7070/775-331-6444,mid may-mid oct,NA,47,6936,NH ND 35ft VT DW NS RS,CA,6.2,SW,Bridgeport,vault,TRUE,TRUE,FALSE,276.23187283750565
-119.337,37.344,MAMM,Mammoth Pool,NF,559-877-2218/559-297-0706,mid may-late sep,NA,47,3652,NH ND 40ft VT DW NS RS,CA,12.4,NE,North Fork,vault,TRUE,TRUE,FALSE,276.4997764473347
-119.353,37.26,FISH,Fish Creek,NF,559-877-2218/559-297-0706,mid may-mid sep,NA,5,4675,NH ND 20ft VT NW NS NR,CA,14.4,NE,Auberry,vault,FALSE,FALSE,FALSE,277.02860157898147
-119.271,37.965,SADB,Saddlebag Lake,NF,760-647-3045/760-873-2400,NA,NA,20,10194,NH ND 16ft VT NW NS NR,CA,8.2,W,Lee Vining,vault,FALSE,FALSE,FALSE,277.80830442574813
-119.28,37.529,CLOV,Clover Meadow,NF,559-877-2218/559-297-0706,NA,NA,7,7064,NH ND 16ft VT DW NS NR N$,CA,NA,NA,NA,vault,TRUE,FALSE,FALSE,278.3669751132785
-119.278,38.11,GREK,Green Creek,NF,760-932-7070/775-331-6444,NA,NA,15,8376,NH ND 22ft VT DW NS NR,CA,10.4,S,Bridgeport,vault,TRUE,FALSE,FALSE,278.61207406983124
-121.532,40.188,POTA,Potato Patch,NF,530-258-2141/530-257-2151,NA,NA,30,3530,NH ND 27ft VT DW NS NR,CA,17.8,SW,Chester,vault,TRUE,FALSE,FALSE,278.70273055346337
-119.892,39.313,MOUN,Mount Rose,NF,775-882-2766/775-331-6444,early jul-late aug,NA,24,8927,NH ND 16ft FT DW NS RS,NV,15.5,S,Reno,flush,TRUE,TRUE,FALSE,278.728052460951
-119.255,37.928,TIOG,Tioga Lake,NF,760-647-3045/760-873-2400,NA,NA,13,9682,NH ND 16ft VT NW NS NR,CA,7.7,W,Lee Vining,vault,FALSE,FALSE,FALSE,279.0011711639527
-119.27,37.542,GRAN,Granite Creek,NF,559-877-2218/559-297-0706,NA,NA,20,6982,NH ND VT NW NS NR N$,CA,NA,NA,NA,vault,FALSE,FALSE,FALSE,279.08368324811823
-119.251,37.938,JUNT,Junction,NF,760-647-3045/760-873-2400,NA,NA,13,9544,NH ND 20ft VT NW NS NR,CA,7.3,W,Lee Vining,vault,FALSE,FALSE,FALSE,279.4033937170594
-119.257,38.052,TRUM,Trumbull Lake,NF,760-932-7070/775-331-6444,early jul-mid sep,NA,59,9862,NH ND 45ft VT DW NS RS,CA,14.2,S,Bridgeport,vault,TRUE,TRUE,FALSE,279.76917812398614
-119.244,37.938,ELLE,Ellery,NF,760-647-3045/760-873-2400,NA,NA,12,9541,NH ND 26ft VT DW NS NR,CA,6.9,W,Lee Vining,vault,TRUE,FALSE,FALSE,280.0180366344248
-123.785,40.061,BENB,Benbow Lake State Rec Area,SRA,707-923-3238,mid may-late dec,NA,75,NA,NH DP 30ft FT DW SH RS,CA,2.8,S,Garberville,flush,TRUE,TRUE,TRUE,280.0528150807724
-119.899,36.262,LEMO,Lemoore Naval Air Station Military,MIL,559-998-0837,NA,military only - do not use our lat/lon - contact them for directions and info,NA,NA,RS,CA,7.0,SW,Lemoore,NA,NA,TRUE,NA,280.1525529347579
-120.966,40.03,SPAN,Spanish Creek (Family ),NF,530-283-0555/530-283-2050,early jun-late aug,NA,21,3192,NH ND VT DW NS RS PA,CA,6.5,N,Quincy,vault,TRUE,TRUE,FALSE,280.28948118620684
-121.495,40.21,ALDE,Alder Creek,NF,530-258-2141/530-257-2151,NA,NA,5,3898,NH ND VT NW NS NR,CA,NA,NA,NA,vault,FALSE,FALSE,FALSE,281.94158676722066
-119.833,39.305,DAVI,Davis Creek,CP,775-849-0684,NA,NA,63,5210,NH DP 40ft FTVT DW SH L$,NV,10.3,N,Carson City,flush_and_vault,TRUE,NA,TRUE,282.28526997050886
-119.763,39.241,WASH,Washoe Lake State Rec Area,SP,775-687-4319,all year,NA,49,5046,NH DP 45ft FT DW SH NR,NV,5.4,N,Carson City,flush,TRUE,FALSE,TRUE,283.12326124272573
-119.202,37.945,BIGN,Big Bend,NF,760-647-3045/760-873-2400,NA,NA,17,7766,NH ND 30ft VT DW NS NR,CA,4.6,W,Lee Vining,vault,TRUE,FALSE,FALSE,283.74325732247206
-119.207,38.034,LUND,Lundy Lake Park,CP,760-932-5231,NA,NA,50,7652,NH ND 24ft PT NW NS L$,CA,7.1,NW,Lee Vining,pit,FALSE,NA,FALSE,283.9640828165664
-124.003,40.018,KINR,King Range Conservation Area,NA,NA,NA,NA,NA,1929,NA,CA,3.2,W,Whitethorn,NA,NA,NA,NA,284.3839384725038
-124.003,40.018,WAIL,Wailaki,BLM,NA,NA,NA,13,1906,NH ND 25ft VT DW NS NR,CA,11.8,SW,Redway,vault,TRUE,FALSE,FALSE,284.3839384725038
-121.166,40.145,COOL,Cool Springs,UTIL,NA,NA,NA,33,4180,NH ND NS,CA,5.0,S,Almanor,NA,NA,NA,FALSE,284.6528696865288
-119.243,37.345,WESK,West Kaiser,NF,559-855-5355/559-297-0706,NA,NA,10,5600,NH ND 25ft VT NW NS NR N$,CA,17.1,N,Shaver Lake,vault,FALSE,FALSE,FALSE,284.6619662852041
-119.31,37.113,DORA,Dorabelle,NF,559-855-5355/559-297-0706,mid may-late oct,NA,71,5495,NH ND 40ft VT DW NS RS PA N$,CA,0.8,NE,Shaver Lake,vault,TRUE,TRUE,FALSE,284.77700484268706
-124.006,40.021,NADE,Nadelos,BLM,NA,NA,NA,8,1932,NH ND VT DW NS NR L$,CA,3.3,W,Whitethorn,vault,TRUE,FALSE,FALSE,284.79986143318075
-119.306,37.122,CAME,Camp Edison,UTIL,559-841-3134,NA,NA,252,5545,E DP FT DW SH,CA,1.4,NE,Shaver Lake,flush,TRUE,NA,TRUE,284.8473904324015
-119.188,37.939,ASPN,Aspen,NF,760-647-3045/760-873-2400,NA,NA,52,7526,40ft PT DW NR,CA,3.9,W,Lee Vining,pit,TRUE,FALSE,NA,284.9405196370326
-120.066,39.565,DOGV,Dog Valley,NF,NA,NA,NA,8,6352,NH ND VT NW NS NR,CA,5.2,NW,Verdi,vault,FALSE,FALSE,FALSE,285.34830915049514
-119.34,38.621,DESE,Desert Creek,NF,760-932-7070/775-331-6444,NA,NA,20,6325,NR,NV,31.2,SE,Gardnerville,NA,NA,FALSE,NA,285.60648870142956
-121.187,40.168,POND,Ponderosa Flat,CP,NA,NA,NA,63,4172,NH ND VT DW NS,CA,9.8,S,Chester,vault,TRUE,NA,FALSE,286.32486375643145
-119.169,37.93,BOUL,Boulder,NF,760-647-3045/760-873-2400,NA,NA,10,7428,30ft NW NR,CA,3.3,SW,Lee Vining,NA,FALSE,FALSE,NA,286.56455858300666
-120.073,39.589,LOOK,Lookout,NF,775-882-2766/775-331-6444,NA,NA,30,6755,22ft VT DW NR,CA,14.4,W,Reno,vault,TRUE,FALSE,NA,286.751644843511
-121.448,40.248,ELAM,Elam,NF,530-258-2141/530-257-2151,NA,NA,11,4455,NH ND 30ft VT DW NS NR,CA,12.1,W,Chester,vault,TRUE,FALSE,FALSE,287.14940098288827
-119.158,37.928,LOWV,Lower Lee Vining,NF,760-647-3045/760-873-2400,NA,NA,60,7871,NH ND 40ft PT NW NS NR,CA,2.9,SW,Lee Vining,pit,FALSE,FALSE,FALSE,287.52142911534014
-119.278,37.094,SWAN,Swanson,NF,559-855-5355/559-297-0706,NA,NA,9,5755,NH ND 40ft VT NW NS NR,CA,2.3,E,Shaver Lake,vault,FALSE,FALSE,FALSE,288.0930584294203
-121.273,40.213,SOLD,Soldier Meadows,NF,530-258-2141/530-257-2151,NA,NA,10,4770,NH ND 45ft VT NW NS NR,CA,6.8,S,Chester,vault,FALSE,FALSE,FALSE,288.3049503929532
-119.227,37.239,BILU,Billy Creek - Upper,NF,559-855-5355/559-297-0706,NA,NA,48,7100,NH ND NR,CA,3.0,W,Lakeshore,NA,NA,FALSE,NA,288.4456804496371
-119.227,37.238,BILL,Billy Creek - Lower,NF,559-855-5355/559-297-0706,NA,NA,11,7011,NH ND NS NR,CA,3.1,W,Lakeshore,NA,NA,FALSE,FALSE,288.47041741012936
-123.017,40.332,NORB,North Fork Beegum Creek F,NF,530-628-5227/530-226-2500,NA,NA,6,3100,NH ND NS NR,CA,6.7,W,Platina,NA,NA,FALSE,FALSE,288.55265213493817
-119.144,37.935,CATT,Cattleguard,NF,760-647-3045/760-873-2400,NA,NA,15,7267,30ft NR,CA,2.0,SW,Lee Vining,NA,NA,FALSE,NA,288.78436601204334
-120.474,39.887,GRIZ,Grizzly,NF,530-836-2575/530-283-2050,mid may-late sep,NA,55,5879,NH DP 32ft DW NS RS PA,CA,5.3,N,Portola,NA,TRUE,TRUE,FALSE,288.96402290143624
-120.479,39.89,GRAS,Grasshopper Flat Family .,NF,530-836-2575/530-283-2050,mid may-late sep,NA,70,5814,NH ND 32ft VT DW NS RS PA,CA,5.5,N,Portola,vault,TRUE,TRUE,FALSE,288.97901216343826
-122.959,40.352,BASG,Basin Gulch,NF,530-628-5227/530-226-2500,NA,NA,19,2654,NH ND 20ft VT NW NS NR,CA,3.4,W,Platina,vault,FALSE,FALSE,FALSE,289.8859558038872
-119.126,37.783,SIL4,Silver Lake - June Lake,NF,760-647-3045/760-873-2400,early may-mid nov,NA,63,7234,NH ND 42ft FT DW NS RS PA,CA,2.8,W,June Lake,flush,TRUE,TRUE,FALSE,290.1199515871755
-120.829,40.075,TAYL,Taylorsville County Park,CP,530-394-0160,NA,NA,200,3540,E DP FT DW SH,CA,0.6,E,Taylorsville,flush,TRUE,NA,TRUE,290.1949195167118
-123.496,40.251,WATT,Watts Lake,NF,707-574-6233/707-442-1721,NA,NA,12,5039,NR,CA,13.9,S,Mad River,NA,NA,FALSE,NA,290.2634850589429
-119.363,36.822,CHOI,Choinumni,CP,559-488-3004,NA,NA,36,NA,NH DP FT DW NS L$,CA,1.3,NE,Piedra,flush,TRUE,NA,FALSE,290.87441010346095
-121.561,40.31,HOLE,Hole In The Ground,NF,530-258-2141/530-257-2151,NA,NA,13,4357,NH ND 25ft VT DW NS NR,CA,3.2,SE,Mineral,vault,TRUE,FALSE,FALSE,291.07929913683967
-121.105,40.19,FEAT,Feather River/Rocky Point - Lake Almanor,CP,NA,NA,NA,131,NA,NH DP VT DW NS NR,CA,NA,NA,Canyondam,vault,TRUE,FALSE,FALSE,291.28925552183176
-119.112,37.804,AERI,Aerie Crag RV Camp,NF,760-647-3045/760-873-2400,NA,no tents,15,7207,NH ND FT NS NR,CA,2.6,NW,June Lake,flush,NA,FALSE,FALSE,291.32837668550604
-120.503,39.93,LIGH,Lightning Tree Family .,NF,530-836-2575/530-283-2050,mid may-late sep,NA,40,5853,NH DP VT DW NS RS PA,CA,8.5,N,Portola,vault,TRUE,TRUE,FALSE,291.37742549728074
-121.1,40.191,ROCP,Rocky Point - Feather River,UTIL,916-386-5164,NA,NA,131,4507,NH DP NS,CA,2.0,NW,Canyondam,NA,NA,NA,FALSE,291.5606617174174
-121.177,40.217,ALMA,Almanor,NF,530-258-2141/530-257-2151,early may-late sep,NA,103,4633,NH DP 28ft VT DW NS RS,CA,6.8,SE,Chester,vault,TRUE,TRUE,FALSE,291.6848716462319
-120.423,39.891,CROC,Crocker Family .,NF,530-836-2575/530-283-2050,NA,NA,10,5787,NH ND 32ft VT NW NS NR N$,CA,6.1,NE,Portola,vault,FALSE,FALSE,FALSE,291.92819979421915
-119.182,37.251,CATA,Catavee,NF,559-855-5355/559-297-0706,early jun-late aug,NA,30,7064,NH ND 42ft FT DW NS RS PA,CA,0.4,W,Lakeshore,flush,TRUE,TRUE,FALSE,292.0491155134107
-123.647,40.226,AIKE,Aikens Creek,NF,530-627-3291/707-442-1721,NA,NA,15,NA,NH DP VT DW NS NR,CA,NA,NA,NA,vault,TRUE,FALSE,FALSE,292.14250118140166
-119.177,37.253,KINN,Kinnikinnick,NF,559-855-5355/559-297-0706,mid may-mid sep,NA,35,7083,NH ND 42ft VT DW NS RS PA,CA,0.1,W,Lakeshore,vault,TRUE,TRUE,FALSE,292.434486160651
-119.155,37.335,SAMP,Sample Meadow,NF,559-855-5355/559-297-0706,NA,NA,13,7871,NH ND VT NW NS NR N$,CA,5.7,N,Lakeshore,vault,FALSE,FALSE,FALSE,292.531023225698
-119.176,37.252,DEEC,Deer Creek,NF,559-855-5355/559-297-0706,early jun-late aug,NA,37,7021,NH ND 35ft FT DW NS RS PA,CA,41.4,NE,Clovis,flush,TRUE,TRUE,FALSE,292.5449918321081
-119.32,36.867,ISLA,Island Park,NA,NA,NA,NA,NA,NA,WES DP DW SH RS,CA,26.4,E,Fresno,NA,TRUE,TRUE,TRUE,292.5958974402575
-119.338,36.829,PINF,Pine Flat Rec Area,CP,559-488-3004,NA,NA,52,NA,FT DW,CA,24.7,E,Fresno,flush,TRUE,NA,NA,292.6488017241272
-124.058,40.083,TOLK,Tolkan,BLM,NA,NA,NA,5,1890,NH ND 25ft VT NW NS NR L$,CA,5.0,SW,Etterburg,vault,FALSE,FALSE,FALSE,292.9762125121011
-119.241,37.038,BRET,Bretz,NF,559-855-5355/559-297-0706,NA,NA,12,3333,NH ND VT DW NS NR,CA,6.2,SE,Shaver Lake,vault,TRUE,FALSE,FALSE,293.0276414972147
-119.17,37.252,COLL,College,NF,559-855-5355/559-297-0706,early jun-late aug,NA,12,7014,NH ND 27ft FTVT DW NS RS PA,CA,0.3,E,Lakeshore,flush_and_vault,TRUE,TRUE,FALSE,293.06484300149407
-120.955,40.157,GREN,Greenville Community Campground,NF,530-283-0555/530-283-2050,NA,NA,20,3678,NH VT DW NS NR,CA,1.2,N,Greenville,vault,TRUE,FALSE,FALSE,293.3148139711149
-123.361,40.313,HOBA,Hobart Creek - Ruth Lake,CP,707-574-6196,NA,NA,NA,2671,DP DW SH,CA,12.2,SE,Mad River,NA,TRUE,NA,TRUE,293.3196188236976
-119.291,36.904,TRIM,Trimmer Rec Area,COE,NA,NA,unknown facil,NA,NA,NH NR,CA,19.9,NE,Sanger,NA,NA,FALSE,NA,293.5693520219987
-119.09,37.682,AGNE,Agnew Meadows,NF,760-924-5500/760-873-2400,NA,NA,21,4902,NH ND 30ft VT DW NS NR,CA,6.9,W,Mammoth Lakes,vault,TRUE,FALSE,FALSE,293.6699256305281
-121.627,40.348,BATT,Battle Creek,NF,530-258-2141/530-257-2151,NA,NA,50,4885,NH ND 30ft VT DW NS NR,CA,1.7,W,Mineral,vault,TRUE,FALSE,FALSE,293.77073274619676
-119.161,37.25,RANC,Rancheria,NF,559-855-5355/559-297-0706,all year,NA,153,7090,NH ND 29ft FTVT DW NS RS,CA,0.8,E,Lakeshore,flush_and_vault,TRUE,TRUE,FALSE,293.89235600008595
-119.083,37.771,REVE,Reversed Creek,NF,760-647-3045/760-873-2400,mid may-late oct,NA,16,7707,NH ND 40ft FT DW NS RS,CA,0.7,SW,June Lake,flush,TRUE,TRUE,FALSE,293.9301452828701
-119.082,37.773,GULL,Gull Lake,NF,760-647-3045/760-873-2400,NA,NA,11,7608,NH ND 30ft FT DW NS NR,CA,0.6,SW,June Lake,flush,TRUE,FALSE,FALSE,294.01403018507057
-121.426,40.309,GURN,Gurnsey Creek,NF,530-258-2141/530-257-2151,mid may-late sep,NA,30,4813,NH ND 25ft VT DW NS RS,CA,10.2,W,Chester,vault,TRUE,TRUE,FALSE,294.1726905368252
-123.394,40.314,BOYS,Boy Scout Cove - Ruth Lake,CP,707-574-6196,NA,NA,NA,2670,NH ND NS,CA,11.1,SE,Mad River,NA,NA,NA,FALSE,294.2321840377746
-120.883,35.428,MORS,Morro Strand State Beach,SP,805-772-2560,mid may-late dec,NA,76,NA,NH ND 24ft FT DW NS RS,CA,4.7,NW,Morro Bay,flush,TRUE,TRUE,FALSE,294.4774266160897
-119.084,37.64,MINA,Minaret Falls,NF,760-924-5500/760-873-2400,NA,NA,26,7651,NH ND 40ft VT DW NS NR,CA,6.1,W,Mammoth Lakes,vault,TRUE,FALSE,FALSE,294.481503331141
-119.075,37.782,JUNE,June Lake,NF,760-647-3045/760-873-2400,early may-late oct,NA,28,7648,NH ND 35ft FT DW NS RS PA,CA,0.2,N,June Lake,flush,TRUE,TRUE,FALSE,294.61375785696356
-119.071,37.799,OHRI,Oh Ridge,NF,760-647-3045/760-873-2400,early may-late sep,NA,147,7713,NH ND 35ft FT DW NS RS PA,CA,1.4,N,June Lake,flush,TRUE,TRUE,FALSE,294.9433724549236
-119.077,37.653,SOD2,Soda Springs,NF,760-924-5500/760-873-2400,NA,NA,29,7733,NR,CA,5.7,W,Mammoth Lakes,NA,NA,FALSE,NA,295.00249672269564
-119.199,37.082,SUMM,Summit,NF,559-855-5355/559-297-0706,NA,no rvs,5,7093,NH ND NS NR N$,CA,30.1,SE,Oakhurst,NA,NA,FALSE,FALSE,295.21052499798185
-119.075,37.648,PUMI,Pumice Flat,NF,760-924-5500/760-873-2400,mid jun-mid sep,NA,4,7713,NH ND 35ft FT DW NS NR,CA,5.6,W,Mammoth Lakes,flush,TRUE,FALSE,FALSE,295.21446981529107
-123.393,40.326,RUTH,Ruth Lake - Ruth Lake,CP,707-574-6196,NA,NA,NA,2699,NA,CA,10.5,SE,Mad River,NA,NA,NA,NA,295.48220474753026
-124.066,40.106,HORN,Horse Mountain,BLM,NA,NA,NA,9,1729,NH ND 25ft NW NS NR L$,CA,4.3,SW,Etterburg,NA,FALSE,FALSE,FALSE,295.5352911069277
-119.073,37.619,REDS,Reds Meadow,NF,760-924-5500/760-873-2400,NA,NA,56,10030,NH ND FT DW SH NR,CA,5.9,W,Mammoth Lakes,flush,TRUE,FALSE,TRUE,295.6188615630818
-119.063,37.654,DEVI,Devils Postpile,NM,760-934-2289,NA,NA,21,9065,NH ND 25ft FT DW NS NR,CA,NA,NA,NA,flush,TRUE,FALSE,FALSE,296.2283880129989
-119.587,39.252,DAYT,Dayton State Park,SP,775-684-2770,all year,NA,10,4334,NH DP 20ft FTVT DW NS NR,NV,1.1,N,Dayton,flush_and_vault,TRUE,FALSE,FALSE,296.47178135310884
-123.4,40.341,BAIC,Bailey Canyon,NF,707-574-6233/707-442-1721,NA,NA,25,NA,NH ND 22ft VT DW NS NR,CA,9.4,SE,Mad River,vault,TRUE,FALSE,FALSE,297.2487960678656
-119.116,37.269,BADG,Badger Flat,NF,559-855-5355/559-297-0706,NA,NA,15,8274,NH ND VT NW SH NR,CA,3.4,E,Lakeshore,vault,FALSE,FALSE,TRUE,297.3508127899167
-123.403,40.343,FIRC,Fir Cove,NF,707-574-6233/707-442-1721,mid may-late sep,NA,19,2838,NH ND 22ft NS RS PA,CA,9.2,SE,Mad River,NA,NA,TRUE,FALSE,297.53544888435965
-123.309,40.366,SCOF,Scott Flat,NF,530-628-5227/530-226-2500,NA,NA,18,2454,15ft VT NW NR,CA,26.8,E,Bridgeville,vault,FALSE,FALSE,NA,297.7745844059048
-119.037,37.772,HART,Hartley Springs,NF,760-647-3045/760-873-2400,NA,NA,20,8451,NH ND 35ft VT NW NS NR N$,CA,9.2,NW,Mammoth Lakes,vault,FALSE,FALSE,FALSE,297.9800579626656
-123.314,40.371,HELG,Hell Gate,NF,530-628-5227/530-226-2500,NA,NA,29,2372,NH ND 15ft NS NR,CA,14.4,SW,Hayfork,NA,NA,FALSE,FALSE,298.42213566828605
-119.156,37.071,DINK,Dinkey,NF,559-855-5355/559-297-0706,early jun-late oct,NA,141,5850,NH ND 42ft FTVT DW NS RS PA,CA,1.1,S,Dinkey Creek,flush_and_vault,TRUE,TRUE,FALSE,299.22275405039943
-123.327,40.377,FORE,Forest Glen,NF,530-628-5227/530-226-2500,NA,swimming hole in river,21,2526,NH ND 15ft VT DW NS NR,CA,14.4,SW,Hayfork,vault,TRUE,FALSE,FALSE,299.3577748737797
-119.067,37.32,PORT,Portal Forebay,NF,559-855-5355/559-297-0706,NA,NA,10,7215,NH ND VT NW NS NR,CA,7.5,NE,Lakeshore,vault,FALSE,FALSE,FALSE,300.50362589951135
-121.306,40.339,HIGH,High Bridge,NF,530-258-2141/530-257-2151,NA,NA,12,4895,NH ND VT DW NS NR,CA,4.5,NW,Chester,vault,TRUE,FALSE,FALSE,300.5210747589363
-119.009,37.721,LOWD,Lower Deadman,NF,760-647-3045/760-873-2400,NA,NA,15,7808,NH ND VT NW NS NR N$,CA,5.4,N,Mammoth Lakes,vault,FALSE,FALSE,FALSE,300.60901298924574
-120.741,35.424,CERR,Cerro Alto,NF,805-925-9538/805-961-5778,all year,NA,22,NA,NH ND 25ft VT DW NS RS PA,CA,6.0,SW,Atascadero,vault,TRUE,TRUE,FALSE,301.0024805729783
-119.01,37.616,TWIN,Twin Lakes,NF,760-924-5500/760-873-2400,early jun-late oct,NA,93,8648,NH ND 40ft FT DW NS RS PA,CA,3.0,SW,Mammoth Lakes,flush,TRUE,TRUE,FALSE,301.1900953743608
-119.009,37.602,LAKG,Lake George,NF,760-924-5500/760-873-2400,NA,NA,15,8940,NH ND 20ft FT DW NS NR,CA,3.8,SW,Mammoth Lakes,flush,TRUE,FALSE,FALSE,301.40124808890255
-119.007,37.607,LAKM,Lake Mary,NF,760-924-5500/760-873-2400,early jun-late aug,NA,51,8970,NH ND 20ft FT DW NS RS,CA,3.4,SW,Mammoth Lakes,flush,TRUE,TRUE,FALSE,301.53239472260196
-121.345,40.36,DOMI,Domingo Springs,NF,530-258-2141/530-257-2151,NA,NA,18,5108,NH ND 25ft VT DW NS NR,CA,7.0,NW,Chester,vault,TRUE,FALSE,FALSE,301.66929741207923
-118.99,37.752,GLAS,Glass Creek,NF,760-647-3045/760-873-2400,NA,NA,50,7543,NH ND 35ft VT NW NS NR N$,CA,5.1,E,June Lake,vault,FALSE,FALSE,FALSE,302.1713689998152
-119.0,37.604,PINC,Pine City,NF,760-924-5500/760-873-2400,NA,NA,10,8983,NH ND 38ft FT DW NS NR,CA,3.4,SW,Mammoth Lakes,flush,TRUE,FALSE,FALSE,302.1752839060521
-118.999,37.597,COLW,Coldwater,NF,760-924-5500/760-873-2400,early jun-late sep,NA,75,9058,NH ND 35ft FT DW NS RS PA,CA,3.8,SW,ammoth Lakes,flush,TRUE,TRUE,FALSE,302.32716954502797
-122.926,40.47,DEEL,Deerlick Springs,NF,530-628-5227/530-226-2500,NA,NA,13,3255,NH ND VT NW NS NR N$,CA,NA,NA,NA,vault,FALSE,FALSE,FALSE,302.39272591781764
-119.221,38.809,WILC,Wilson Canyon,BLM,NA,NA,unknown facilities,NA,4700,NH ND NS NR,NV,12.6,S,Yerington,NA,NA,FALSE,FALSE,302.41291539336663
-118.991,37.639,CAMH,Camp High Sierra,CP,760-934-2368,NA,NA,NA,8134,E DP DW SH,CA,1.2,SW,Mammoth Lakes,NA,TRUE,NA,TRUE,302.67814173634406
-121.309,40.363,WARN,Warner Creek,NF,NA,NA,NA,13,5082,NH ND VT NW NS,CA,5.6,NW,Chester,vault,FALSE,NA,FALSE,302.9588565049093
-121.203,40.335,LAST,Last Chance Creek,CP,916-386-5164,NA,NA,12,4522,NH ND VT DW NS,CA,2.5,NE,Chester,vault,TRUE,NA,FALSE,303.0805475602675
-120.209,39.891,COTS,Cottonwood Springs Family .,NF,530-836-2575/530-283-2050,mid apr-mid sep,NA,20,5696,NH DP 50ft FT DW NS NR,CA,7.4,NW,Chilcoot,flush,TRUE,FALSE,FALSE,303.32587091646496
-120.166,39.866,CHIF,Chilcoot Family .,NF,530-836-2575/530-283-2050,mid may-late sep,NA,40,5151,NH ND 45ft FT DW NS RS,CA,4.9,N,Chilcoot,flush,TRUE,TRUE,FALSE,303.59569650688746
-123.06,40.47,SHEI,Sheill Gulch,NF,530-628-5227/530-226-2500,NA,NA,9,2831,NR,CA,11.6,NW,Platina,NA,NA,FALSE,NA,304.28656295942255
-119.01,37.379,VERM,Vermillion,NF,559-855-5355/559-297-0706,early jun-mid sep,NA,32,7697,NH ND VT DW NS RS PA,CA,12.6,NE,Lakeshore,vault,TRUE,TRUE,FALSE,304.33862363217963
-123.867,40.276,HIDS,Hidden Springs - Humbolt Redwoods State Park,SP,707-946-1811,NA,NA,154,NA,NH 33ft FT DW SH NR,CA,4.2,SE,Weott,flush,TRUE,FALSE,TRUE,304.6350134520822
-119.018,37.326,MONH,Mono Hot Springs,NF,559-855-5355/559-297-0706,early jun-mid sep,NA,28,6572,NH ND VT NW NS RS PA,CA,10.0,NE,Lakeshore,vault,FALSE,TRUE,FALSE,304.65088989484036
