lon,lat,campground_code,campground_name,type,phone_number,dates_open,comments,num_campsite,amenities,state,bearing_to_town,nearest_town,toilets,drinking_water,reservations,showers,elevation_m,distance_to_town_km,station_code,station_elevation,station_dist_km
-122.48,38.002,CHIC,China Camp State Park,SP,415-456-0766,all year,long walk to sites,NA,NH ND SH RS,CA,NE,San Rafael,NA,NA,TRUE,TRUE,NA,5.47,USC00047880,37,5.04
-122.105,37.759,ANTH,Anthony Chabot Regional Park,CP,888-327-2757,NA,NA,NA,E DP FT DW SH,CA,E,Oakland,flush,TRUE,NA,TRUE,NA,15.45,USW00023230,2,11.03
-122.445,37.466,HALM,Half Moon Bay State Beach,SP,650-726-8819,all year,NA,NA,NH DP NS RS,CA,W,Half Moon Bay,NA,NA,TRUE,FALSE,NA,1.45,USC00043714,8,0.74
-122.739,38.024,SAMU,Samuel Taylor State Park,SP,415-488-9897,mid may-late dec,NA,60,NH DP 31ft FT DW SH RS,CA,W,Lagunitas,flush,TRUE,TRUE,TRUE,NA,4.51,USC00047880,37,17.95
-121.933,37.851,MTDI,Mt. Diablo State Park,SP,925-837-2525,all year,3 campgrounds,84,NH 20ft FT DW RS,CA,SE,Walnut Creek,flush,TRUE,TRUE,NA,501,13.36,USC00045915,661,3.14
-121.891,37.707,CAMP,Camp Parks Military,MIL,NA,NA,military only - do not use our lat/lon - contact them for directions and info,NA,NH ND NS RS,CA,E,Dublin,NA,NA,TRUE,FALSE,NA,4.02,USW00023285,120,6.94
-121.889,37.659,ALAM,Alameda County Fairgrounds RV,CP,NA,NA,NA,NA,E,CA,W,Pleasanton,NA,NA,NA,NA,NA,1.29,USW00023285,120,7.58
-122.294,37.277,SANM,San Mateo Memorial County Park,CP,650-879-0238,all year,NA,156,NH DP 35ft FT DW SH,CA,E,Pescadero,flush,TRUE,NA,TRUE,NA,8.21,USC00048273,692,10.47
-122.246,38.276,SKYL,Skyline Wilderness County Park,CP,707-252-0481,NA,NA,59,E DP DW SH,CA,SE,Napa,NA,TRUE,NA,TRUE,NA,4.35,USC00046074,11,1.65
-121.821,38.011,CONT,Contra Costa County Fair RV Park,CP,925-757-4400,all year,NA,24,E ND DW SH,CA,NW,Antioch,NA,TRUE,NA,TRUE,NA,1.45,USC00040232,18,6.76
-121.835,37.515,SUNO,Sunol Regional Wilderness,CP,510-544-3249,NA,closed 2011-2015,NA,NH ND NW NS RS L$,CA,S,Pleasanton,NA,FALSE,TRUE,FALSE,NA,16.74,USC00043244,12,16.26
-122.278,38.296,NAPV,Napa Valley Expo,CP,707-253-4900,NA,RV park,NA,WES DP FT DW SH,CA,E,Napa,flush,TRUE,NA,TRUE,NA,0.8,USC00046074,11,2.33
-122.212,37.262,PORR,Portola Redwoods State Park,SP,650-948-9098,early mar-late dec,steep windy roads,53,NH ND 24ft FT DW SH RS,CA,SE,Lahonda,flush,TRUE,TRUE,TRUE,NA,8.37,USC00048273,692,6.18
-122.326,37.232,BUTA,Butano State Park,SP,650-879-2040,mid may-late dec,NA,39,NH ND 24ft FT DW NS RS,CA,SE,Pescadero,flush,TRUE,TRUE,FALSE,NA,5.63,USC00048273,692,15.42
-122.783,38.247,PETA,Petaluma Lake Area Military,MIL,707-765-7341,NA,military only - do not use our lat/lon - contact them for directions and info,NA,RS,CA,W,Petaluma,NA,NA,TRUE,NA,NA,12.87,USC00046826,6,15.38
-122.064,37.237,SANB,Sanborn - Skyline County Park,CP,NA,NA,NA,NA,E DP 31ft,CA,W,Los Gatos,NA,NA,NA,NA,NA,9.01,USC00045123,111,9.32
-121.688,37.57,DELV,Del Valle Regional Park,CP,888-327-2757,NA,NA,150,NH DP FT DW SH,CA,SE,Livermore,flush,TRUE,NA,TRUE,NA,14.32,USC00044997,146,15.34
-121.954,38.271,TRAV,Travis AFB Military,MIL,707-424-3583,NA,military only - do not use our lat/lon - contact them for directions and info,NA,RS,CA,NA,NA,NA,NA,TRUE,NA,NA,NA,USW00023202,18,1.87
-122.221,37.169,BIG3,Big Basin Redwoods State Park,SP,831-338-8860,early mar-late dec,NA,102,NH DP 27ft FT DW SH RS,CA,NW,Boulder Creek,flush,TRUE,TRUE,TRUE,NA,9.98,USC00040673,128,15.6
-121.694,38.111,BRAI,Brannan Island State Rec Area,SRA,916-777-6671,all year,NA,127,E DP 36ft FT DW SH RS,CA,S,Rio Vista,flush,TRUE,TRUE,TRUE,NA,4.99,USC00040232,18,15.08
-122.539,38.442,SUGL,Sugarloaf Ridge State Park,SP,707-833-5712,all year,NA,49,NH DP 27ft FT DW NS RS,CA,N,Kenwood,flush,TRUE,TRUE,FALSE,NA,3.22,USC00047643,69,9.29
-121.694,38.149,SANP,Sandy Beach County Park,CP,707-374-2097,NA,NA,NA,E DP DW SH,CA,S,Rio Vista,NA,TRUE,NA,TRUE,NA,0.8,USC00040232,18,19.1
-122.699,38.425,SONF,Sonoma County Fairgrounds RV Park,CP,707-293-8410,NA,NA,NA,E DW SH,CA,SE,Santa Rosa,NA,TRUE,NA,TRUE,NA,2.25,USW00023213,35,13.08
-122.653,38.448,SPRL,Spring Lake Regional Park,CP,707-565-2267,NA,NA,NA,NH DP DW SH,CA,E,Santa Rosa,NA,TRUE,NA,TRUE,NA,5.31,USW00023213,35,15.06
-121.722,37.342,GRAC,Grant County Park,CP,408-274-6121,NA,NA,NA,NH 30ft DW SH,CA,E,San Jose,NA,TRUE,NA,TRUE,500,15.29,USC00045933,1282,7.05
-121.529,37.628,CARN,Carnegie State Vehicle Rec Area,SP,925-447-9027,NA,off road vehicle area,23,NH ND FT DW NS NR L$,CA,SW,Tracy,flush,TRUE,FALSE,FALSE,NA,15.45,USC00048999,41,17.16
-123.042,38.315,DORN,Doran Regional Park,CP,NA,NA,NA,NA,NH DP DW SH,CA,S,Bodega Bay,NA,TRUE,NA,TRUE,NA,2.09,USW00093245,19,2.93
-123.055,38.323,WERP,Westside Regional Park,CP,707-875-3540,NA,NA,NA,NH DP DW SH,CA,SW,Bodega Bay,NA,TRUE,NA,TRUE,NA,1.29,USW00093245,19,1.74
-122.201,38.509,LUPI,Lupine Shores - Lake Berryessa - USBR,BOR,707-966-9088,NA,NA,NA,NA,CA,N,Napa,NA,NA,NA,NA,NA,24.62,USC00045360,146,6.97
-123.054,38.341,BODE,Bodega Dunes - Sonoma Coast State Park,SP,707-875-3483,all year,NA,98,NH DP 31ft FT DW SH RS,CA,NW,Bodega Bay,flush,TRUE,TRUE,TRUE,NA,0.97,USW00093245,19,2.88
-122.213,38.522,FOOT,Foothill Pines - Lake Berryessa - USBR,BOR,707-966-9088,NA,NA,NA,NA,CA,N,Napa,NA,NA,NA,NA,NA,25.75,USC00045360,146,8.44
-122.535,38.546,BOTH,Bothe - Napa Valley State Park,SP,707-942-4575,all year,NA,NA,NH 31ft FT DW SH RS,CA,SE,Calistoga,flush,TRUE,TRUE,TRUE,NA,5.31,USC00047643,69,7.06
-122.029,38.493,LAKU,Lake Solano County Park,CP,530-795-2990,NA,NA,NA,E DP DW SH,CA,SW,Winters,NA,TRUE,NA,TRUE,NA,6.12,USC00044712,57,2.19
-122.041,37.031,HENR,Henry Cowell Redwoods State Park,SP,831-438-2396,early mar-late dec,NA,113,NH ND 35ft FT DW SH RS,CA,SW,Scotts Valley,flush,TRUE,TRUE,TRUE,NA,3.22,USC00047916,40,6.31
-121.489,38.126,WEST,Westgate Landing Regional Park,CP,209-953-8800,NA,NA,14,NH ND NS RS,CA,W,Lodi,NA,NA,TRUE,FALSE,NA,18.99,USC00040232,18,28.03
-122.586,38.583,NAPF,Napa County Fairgrounds,CP,707-942-5111,NA,NA,NA,E DP SH,CA,NW,Calistoga,NA,NA,NA,TRUE,NA,0.64,USC00041312,122,1.98
-123.094,38.4,WRIB,Wrights Beach - Sonoma Coast State Park,SP,707-875-3483,all year,NA,30,NH ND 27ft FT DW NS RS,CA,NW,Bodega Bay,flush,TRUE,TRUE,FALSE,NA,8.53,USW00093245,19,8.95
-122.267,38.599,MANZ,Manzanita Canyon - Lake Berryessa - USBR,BOR,707-966-9088,NA,NA,NA,NA,CA,N,Napa,NA,NA,NA,NA,NA,33.64,USC00040212,523,15.4
-121.793,37.085,UVAS,Uvas Canyon County Park,CP,408-779-9232,NA,NA,25,NH ND FT DW NS L$,CA,W,Morgan Hill,flush,TRUE,NA,FALSE,NA,13.36,USW00023277,49,16.56
-122.288,38.625,CHAP,Chaparral Cove - Lake Berryessa - USBR,BOR,707-966-9088,NA,NA,NA,NA,CA,N,Napa,NA,NA,NA,NA,NA,36.37,USC00040212,523,14.49
-121.998,36.973,SACP,Santa Cruz Port District,CP,831-475-3279,NA,NA,12,WES DP NS,CA,E,Santa Cruz,NA,NA,NA,FALSE,NA,2.9,USC00047916,40,2.05
-121.937,36.983,NEWB,New Brighton State Beach,SP,831-464-6330,all year,NA,102,WES DP 36ft FT DW SH RS,CA,NE,Capitola,flush,TRUE,TRUE,TRUE,NA,1.61,USC00047916,40,4.89
-121.311,37.83,DOSR,Dos Reis,CP,209-953-8800,NA,NA,NA,E DP 60ft FT DW SH,CA,W,Lathrop,flush,TRUE,NA,TRUE,NA,3.06,USW00023237,8,9.97
-121.919,36.974,SEAC,Seacliff State Beach,SB,831-685-6442,all year,NA,30,NH ND 40ft FT DW SH RS,CA,W,Aptos,flush,TRUE,TRUE,TRUE,NA,1.77,USC00047916,40,6.68
-121.373,37.42,FRAN,Frank Raines Regional Park,CP,209-525-6750,NA,NA,34,E DP FT DW SH L$,CA,NA,Patterson,flush,TRUE,NA,TRUE,NA,NA,USC00045933,1282,25.33
-121.546,37.188,HENC,Henry Coe State Park,SP,408-779-2728,all year,NA,20,NH ND 22ft VT DW NS RS,CA,NE,Morgan Hill,vault,TRUE,TRUE,FALSE,841,11.59,USC00045933,1282,19.27
-121.269,37.854,SHAR,Sharpe RV Military,MIL,209-639-1016,NA,closing 9/2013 - military only - do not use our lat/lon - contact them for directions and info,NA,RS,CA,S,French Camp,NA,NA,TRUE,NA,NA,3.38,USW00023237,8,5.45
-123.011,38.566,AUST,Austin Creek State Rec Area,SRA,707-869-2015,NA,NA,NA,20ft FT DW NR,CA,N,Guerneville,flush,TRUE,FALSE,NA,NA,7.24,USW00023213,35,18.81
-121.702,37.001,MOUN,Mount Madonna,CP,408-355-2201,NA,NA,111,E DP 31ft FT DW,CA,W,Gilroy,flush,TRUE,NA,NA,NA,11.91,USC00049473,29,9.82
-121.853,36.92,MANR,Manresa State Beach,SP,831-761-1795,early mar-late dec,NA,64,NH ND FT DW SH RS,CA,SE,Aptos,flush,TRUE,TRUE,TRUE,NA,7.56,USW00023277,49,6
-123.228,38.508,FORR,Fort Ross State Park,SP,707-847-3286,NA,NA,NA,NR,CA,NW,Bodega Bay,NA,NA,FALSE,NA,NA,24.94,USW00093245,19,24.72
-121.767,36.95,PINT,Pinto Lake Park,CP,831-722-8129,NA,NA,28,WES DP NS,CA,N,Watsonville,NA,NA,NA,FALSE,NA,4.51,USC00049473,29,2.14
-121.183,37.7,CASW,Caswell Memorial State Park,SP,209-599-3810,all year,NA,65,NH ND 24ft FT DW SH RS,CA,SW,Ripon,flush,TRUE,TRUE,TRUE,NA,6.12,USC00048999,41,14.58
-121.832,36.899,SUN3,Sunset State Beach,SB,831-763-7062,all year,NA,90,NH ND 31ft DW SH RS,CA,W,Watsonville,NA,TRUE,TRUE,TRUE,NA,6.76,USW00023277,49,5.62
-121.528,37.078,COYO,Coyote Lake County Park,CP,408-842-7800,NA,NA,74,NH ND 31ft FT DW NS L$,CA,NE,Gilroy,flush,TRUE,NA,FALSE,NA,8.69,USC00043417,59,8.81
-121.765,38.667,YOLO,Yolo County Fair RV,CP,530-402-2222,NA,NA,NA,E DP NS,CA,SE,Woodland,NA,NA,NA,FALSE,NA,1.45,USC00049781,20,3.07
-122.375,38.809,LOWH,Lower Hunting Creek  - Knoxville Rec Area,BLM,NA,NA,NA,5,NH ND VT NW NS NR,CA,SE,Clearlake,vault,FALSE,FALSE,FALSE,NA,27.36,USC00041806,411,21
-123.296,38.548,STIL,Stillwater Cove Regional Park,CP,707-847-3245,NA,NA,23,NH DP 20ft FT DW SH,CA,NW,Jenner,flush,TRUE,NA,TRUE,NA,19.15,USW00093245,19,31.77
-123.324,38.569,SALT,Salt Point State Park,SP,707-847-3221,all year,NA,30,NH ND 31ft FT DW NS RS,CA,NW,Jenner,flush,TRUE,TRUE,FALSE,NA,22.53,USW00093245,19,35.11
-122.696,38.83,CALS,Calso - Boggs Mountain Demo Forest,SF,707-928-4378,NA,NA,13,NH ND PT NW NS NR,CA,NA,NA,pit,FALSE,FALSE,FALSE,992,NA,USC00041806,411,15.28
-123.072,38.727,LIBE,Liberty Glen,NA,NA,NA,NA,NA,NH DP DW SH RS,CA,NW,Healdsburg,NA,TRUE,TRUE,TRUE,NA,21.89,USC00041838,101,9.39
-121.434,38.595,CALX,Cal Expo RV Park,CP,916-263-3187,NA,NA,NA,E DW SH,CA,E,Sacramento,NA,TRUE,NA,TRUE,NA,5.47,USW00023271,12,4.62
-123.024,38.804,CLOF,Cloverdale Citrus Fair,CP,707-894-3992,NA,NA,NA,E DP DW SH,CA,W,Cloverdale,NA,TRUE,NA,TRUE,NA,0.64,USC00041838,101,0.72
-122.319,38.916,CACC,Cache Creek Canyon County Park,CP,530-666-8115,NA,NA,45,NH DP NS,CA,NW,Woodland,NA,NA,NA,FALSE,NA,54.23,USC00041806,411,21.54
-121.094,38.332,RANC,Rancho Seco,UTIL,NA,early apr-late oct,NA,30,E DP DW SH L$,CA,E,Herald,NA,TRUE,NA,TRUE,NA,13.84,USC00048713,483,26.11
-121.094,38.332,RACO,Rancho Seco Rec Area,UTIL,209-748-2318,NA,NA,NA,E DP SH,CA,E,Herald,NA,NA,NA,TRUE,NA,13.84,USC00048713,483,26.11
-120.874,37.843,WOOR,Woodward Reservoir,CP,209-847-3304,NA,NA,155,E DP FT DW SH,CA,N,Oakdale,flush,TRUE,NA,TRUE,NA,8.85,USW00023258,22,25.21
-120.959,37.36,GEOR,George Hatfield State Rec Area,SRA,209-632-1852,mid may-late dec,NA,15,NH ND FT DW NS RS,CA,SW,Hilmar,flush,TRUE,TRUE,FALSE,NA,10.78,USC00046168,27,10.19
-121.911,36.6,VETE,Veterans Memorial Park,CP,831-646-3865,NA,NA,NA,NH DP 21ft,CA,W,Monterey,NA,NA,NA,NA,NA,1.45,USC00045802,37,5.02
-121.502,36.76,FREP,Fremont Peak State Park,SP,831-623-4255,mid may-late dec,NA,21,NH ND 25ft FT DW NS RS,CA,S,San Juan Bautista,flush,TRUE,TRUE,FALSE,846,9.98,USC00044025,84,12.16
-121.862,36.595,MONF,Monterey County Fairgrounds RV,CP,831-657-9347,NA,NA,NA,WES DW SH,CA,E,Monterey,NA,TRUE,NA,TRUE,NA,2.9,USC00045802,37,0.62
-121.861,36.59,MONT,Monterey Pines RV Military,MIL,831-656-7563,NA,military only - do not use our lat/lon - contact them for directions and info,NA,RS,CA,E,Monterey,NA,NA,TRUE,NA,NA,3.22,USC00045802,37,0.57
-122.814,39.008,CLEA,Clear Lake State Park,SP,707-279-4293,all year,NA,149,NH DP 35ft FT DW SH RS,CA,NE,Kelseyville,flush,TRUE,TRUE,TRUE,NA,4.02,USC00041806,411,23.34
-121.062,37.084,SANL,San Luis Creek - San Luis Reservoir,SRA,209-826-1197,all year,NA,53,NH DP 35ft FT DW SH RS,CA,NA,Gustine,flush,TRUE,TRUE,TRUE,NA,NA,USC00045118,37,17.64
-121.412,36.768,HOLL,Hollister Hills State Veh Rec Area,SP,831-637-3874,NA,7 campgrounds - off road veh,125,NH ND FT DW SH NR L$,CA,S,Hollister,flush,TRUE,FALSE,TRUE,NA,9.33,USC00044025,84,8.95
-122.509,39.07,BLUK,Blue Oaks,BLM,NA,NA,unknown facil,6,NH ND VT NW NS NR N$,CA,W,Williams,vault,FALSE,FALSE,FALSE,539,32.35,USC00041806,411,16.98
-123.516,38.756,GUAL,Gualala Point Regional Park,CP,707-785-2377,NA,NA,NA,NH DP DW SH,CA,SE,Gualala,NA,TRUE,NA,TRUE,NA,1.61,USC00041838,101,43.59
-121.755,36.579,LAGS,Laguna Seca,CP,831-755-4899,NA,NA,172,E DP FT DW SH,CA,SW,Salinas,flush,TRUE,NA,TRUE,NA,14.16,USW00023259,50,8.14
-121.063,37.031,BASA,Basalt State Rec Area - San Luis Reservoir,SRA,209-826-1197,NA,NA,79,NH ND 30ft FT DW SH RS,CA,S,Gustine,flush,TRUE,TRUE,TRUE,NA,25.75,USC00045118,37,17.69
-121.029,37.065,MEDE,Medeiros State Rec Area - San Luis Reservoir,SRA,209-826-1197,all year,NA,NA,NH ND PT DW NS NR,CA,S,Gustine,pit,TRUE,FALSE,FALSE,NA,21.57,USC00045118,37,14.47
-121.295,38.759,PLAF,Placer County Fair RV,CP,916-786-2023,NA,NA,NA,E DP DW SH,CA,NW,Roseville,NA,TRUE,NA,TRUE,NA,0.97,USC00040383,394,24.63
-120.798,38.177,ACOR,Acorn - New Hogan Lake,COE,209-772-1343,all year,NA,NA,NH DP FT DW SH RS PA,CA,SE,Valley Springs,flush,TRUE,TRUE,TRUE,NA,3.22,USC00048713,483,22.22
-120.79,38.181,OAKK,Oak Knoll - New Hogan Lake,COE,209-772-1343,mid may-late aug,NA,NA,NH DP NS RS PA L$,CA,E,Valley Springs,NA,NA,TRUE,FALSE,NA,3.54,USC00048713,483,21.8
-121.172,38.719,BEAP,Beals Point - Folsom Lake State Rec Area,SRA,916-988-0205,NA,NA,69,E DP 31ft FT DW SH RS,CA,N,Folsom,flush,TRUE,TRUE,TRUE,NA,4.67,USC00040383,394,22.25
-123.05,39.056,COWM,Cow Mountain Rec Area,BLM,707-468-4000,NA,narrow roads - no RVs - desert terrain- 5 areas,NA,NH ND VT NW NS NR N$,CA,SE,Ukiah,vault,FALSE,FALSE,FALSE,922,17.22,USW00023275,183,15.17
-120.659,37.659,MODE,Modesto Reservoir,CP,209-874-9540,NA,NA,150,E DP 45ft FT DW SH,CA,E,Waterford,flush,TRUE,NA,TRUE,NA,9.17,USC00049073,35,24.67
-120.711,37.416,MCCO,McConnell State Rec Area,SRA,209-394-7755,all year,NA,21,NH ND 30ft FT DW SH RS,CA,S,Ballico,flush,TRUE,TRUE,TRUE,NA,4.02,USC00049073,35,15.83
-120.939,36.987,LOSB,Los Banos Creek - San Luis Reservoir,SRA,209-826-1197,all year,NA,15,NH DP 30ft DW SH NR,CA,S,Gustine,NA,TRUE,FALSE,TRUE,NA,30.58,USC00045118,37,10.04
-122.018,39.205,COLF,Colusa County Fairgrounds,CP,530-458-2641,NA,NA,38,E DP DW SH,CA,SW,Colusa,NA,TRUE,NA,TRUE,NA,1.29,USC00041948,15,2.09
-121.075,38.789,PENS,Peninsula - Folsom Lake State Rec Area,SRA,916-988-0205,NA,NA,100,NH DP FT DW SH RS,CA,NE,Folsom,flush,TRUE,TRUE,TRUE,NA,15.13,USC00040383,394,13.14
-120.581,37.63,TURL,Turlock Lake State Rec Area,SRA,209-874-2056,mid may-late dec,NA,66,NH ND 27ft FT DW SH RS,CA,W,La Grange,flush,TRUE,TRUE,TRUE,NA,10.94,USC00049073,35,28.15
-122.015,39.218,COLU,Colusa - Sacramento River State Rec Area,SRA,530-458-4927,mid may-late dec,NA,14,NH DP 27ft FT DW SH RS,CA,NW,Colusa,flush,TRUE,TRUE,TRUE,NA,0.64,USC00041948,15,3.54
-121.813,36.354,BOTT,Bottchers Gap,NF,831-385-5434/805-961-5778,NA,NA,11,NH ND VT DW NS NR L$,CA,SE,Carmel,vault,TRUE,FALSE,FALSE,603,24.46,USC00040790,61,12.21
-122.699,39.264,CEDA,Cedar Camp,NF,530-934-1250/530-934-3316,NA,NA,6,NH ND VT NW NS NR,CA,SW,Stonyford,vault,FALSE,FALSE,FALSE,1318,18.02,USC00048587,244,38.47
-120.541,38.009,GLOI,Gloryhole Rec Area- Ironhorse - USBR,BOR,209-536-9094,all year,some SFW sites may not have tables,300,NH DP DW NS RS,CA,S,Angels Camp,NA,TRUE,TRUE,FALSE,NA,6.6,USC00046174,293,4.82
-120.535,37.985,IRON,Ironhorse- Glory Hole Area - New Melones Lake,BOR,209-536-9094,NA,NA,90,NH ND FT DW SH RS,CA,NA,Angels Camp,flush,TRUE,TRUE,TRUE,NA,NA,USC00046174,293,4.8
-120.538,38.004,BIGO,Big Oak - Glory Hole Area - New Melones Lake,BOR,209-536-9094,NA,NA,55,NH ND FT DW SH RS,CA,NA,Angels Camp,flush,TRUE,TRUE,TRUE,NA,NA,USC00046174,293,4.53
-122.576,39.286,LITS,Little Stony,NF,530-934-1250/530-934-3316,NA,RVs not recommended,13,NH ND NS NR,CA,S,Stonyford,NA,NA,FALSE,FALSE,NA,10.3,USC00048587,244,33.51
-120.52,37.978,ACOR,Acorn - Tuttletown Area - New Melones Lake,BOR,209-536-9094,NA,NA,69,FT DW RS,CA,NA,Sonora,flush,TRUE,TRUE,NA,NA,NA,USC00046174,293,4.18
-123.206,39.163,REDW,Redwood Empire Fair RV Park,CP,707-462-3884,NA,RV Parking,NA,E DP DW SH,CA,NA,Ukiah,NA,TRUE,NA,TRUE,NA,NA,USW00023275,183,4.15
-120.516,37.982,CHAM,Chamise - Tuttletown Area - New Melones Lake,BOR,209-536-9094,NA,mostly walk in sites,36,NH DP FT DW SH RS,CA,NA,Columbia,flush,TRUE,TRUE,TRUE,NA,NA,USC00046174,293,3.62
-120.522,38.044,FROV,Frogtown RV Park,CP,209-736-4237,NA,NA,NA,E DP DW SH,CA,SE,Angels Camp,NA,TRUE,NA,TRUE,471,3.06,USC00046174,293,5.37
-120.507,37.986,TUTC,Tuttletown Rec Area - Chamise,BOR,209-536-9094,all year,NA,60,NH DP DW SH RS PA,CA,SW,Columbia,NA,TRUE,TRUE,TRUE,NA,10.78,USC00046174,293,2.75
-120.505,37.978,MANZ,Manzanita - Tuttletown Area - New Melones Lake,BOR,209-536-9094,all year,NA,60,NH DP DW SH RS PA,CA,SW,Columbia,NA,TRUE,TRUE,TRUE,NA,11.27,USC00046174,293,3.38
-122.884,39.266,DEER,Deer Valley,NF,707-275-2361/530-934-3316,NA,NA,13,NH ND NS NR,CA,N,Upper Lake,NA,NA,FALSE,FALSE,1111,11.43,USC00047109,310,23.63
-122.95,39.253,MIDC,Middle Creek,NF,707-275-2361/530-934-3316,NA,NA,41,NH ND 41ft VT DW NS NR,CA,N,Upper Lake,vault,TRUE,FALSE,FALSE,NA,10.3,USC00047109,310,19.58
-122.645,39.309,OLDM,Old Mill,NF,530-934-1250/530-934-3316,NA,NA,11,NH ND 16ft VT NW NS NR,CA,SW,Stonyford,vault,FALSE,FALSE,FALSE,1135,11.43,USC00048587,244,32.21
-122.708,39.303,MAIN,Main Letts,NF,530-934-1250/530-934-3316,NA,NA,18,NH ND NS NR,CA,SW,Stonyford,NA,NA,FALSE,FALSE,1389,16.09,USC00048587,244,34.81
-120.643,38.421,INDG,Indian Grinding Rock State Park,SP,209-296-7488,NA,NA,22,NH ND 27ft FT DW SH NR,CA,NE,Pine Grove,flush,TRUE,FALSE,TRUE,749,1.61,USC00048713,483,14.62
-122.712,39.308,SADD,Saddle Camp Loop,NF,530-934-1250/530-934-3316,NA,NA,9,NR,CA,SW,Stonyford,NA,NA,FALSE,NA,1387,16.25,USC00048587,244,34.46
-122.716,39.309,SPIL,Spillway - Letts Lake,NF,530-934-1250/530-934-3316,NA,NA,9,NR,CA,SW,Stonyford,NA,NA,FALSE,NA,1377,16.42,USC00048587,244,34.52
-123.184,39.206,CHEK,Chekaka,COE,707-467-4200,early may-late dec,NA,NA,NH ND NS RS PA,CA,N,Ukiah,NA,NA,TRUE,FALSE,NA,6.6,USW00023275,183,9.02
-122.712,39.31,STIR,Stirrup - Letts Lake,NF,530-934-1250/530-934-3316,NA,NA,28,NR,CA,SW,Stonyford,NA,NA,FALSE,NA,1345,16.09,USC00048587,244,34.26
-123.485,39.084,HEND,Hendy Woods State Park,SP,707-895-3141,mid may-late dec,No RVs,92,E DP 35ft FT DW SH RS,CA,SE,Mendocino,flush,TRUE,TRUE,TRUE,NA,36.69,USW00023275,183,25.02
-120.463,37.664,BLUO,Blue Oaks,NA,NA,NA,NA,172,FT DW,CA,E,Modesto,flush,TRUE,NA,NA,NA,47.15,USC00043669,853,28.95
-122.706,39.318,MILV,Mill Valley,NF,530-934-1250/530-934-3316,NA,NA,15,NH ND 32ft VT DW NS NR,CA,SW,Stonyford,vault,TRUE,FALSE,FALSE,1264,15.29,USC00048587,244,33.24
-121.833,36.283,ANDR,Andrew Molera State Park,SP,831-667-2315,NA,long walk to sites,24,NH NR,CA,NW,Big Sur,NA,NA,FALSE,NA,NA,2.74,USC00040790,61,6.18
-123.166,39.23,BUSH,Bushay,COE,707-467-4200,early may-late aug,NA,NA,NH DP SH RS PA,CA,N,Ukiah,NA,NA,TRUE,TRUE,NA,9.66,USW00023275,183,11.95
-123.699,38.981,MANC,Manchester State Park,SP,707-882-2463,mid may-late dec,NA,48,NH DP 30ft DW NS RS,CA,NW,Manchester;,NA,TRUE,TRUE,FALSE,NA,1.61,USW00023275,183,46.02
-122.52,39.349,EAST,East Park Reservoir - USBR,BOR,530--968-5274,all year,some SFW sites may not have tables,NA,NH ND NW NS NR N$,CA,NW,Lodoga,NA,FALSE,FALSE,FALSE,NA,5.95,USC00048587,244,26.35
-122.702,39.336,DIXG,Dixie Glade,NF,NA,NA,horse camp,7,NH ND VT DW NS NR L$,CA,W,Stonyford,vault,TRUE,FALSE,FALSE,1128,14.32,USC00048587,244,31.3
-123.178,39.235,KYEN,Kyen,COE,707-467-4200,NA,NA,NA,NH DP DW SH NR,CA,N,Ukiah,NA,TRUE,FALSE,TRUE,NA,9.82,USW00023275,183,12.28
-122.93,39.301,PENN,Penny Pines,NF,707-275-2361/530-934-3316,NA,NA,10,NH ND VT NW NS NR L$,CA,N,Upper Lake,vault,FALSE,FALSE,FALSE,1117,15.29,USC00047109,310,18.41
-120.433,37.705,BLOK,Blue Oaks - Don Pedro Rec Area,CP,NA,NA,NA,NA,WE DP DW SH,CA,NE,La Grange,NA,TRUE,NA,TRUE,NA,5.31,USC00043669,853,23.93
-121.385,39.13,BEAL,Beale AFB Military,MIL,530-634-3382,NA,voted best - military only - do not use our lat/lon - contact them for directions and info,NA,RS,CA,NW,Beale Afb,NA,NA,TRUE,NA,NA,2.74,USW00093205,19,16.11
-122.837,39.322,BEAC,Bear Creek,NF,707-275-2361/530-934-3316,NA,NA,16,NH ND VT NW NS NR N$,CA,N,Upper Lake,vault,FALSE,FALSE,FALSE,689,18.67,USC00047109,310,25.53
-122.654,39.356,MILC,Mill Creek,NF,530-934-1250/530-934-3316,NA,NA,5,NH ND NS NR,CA,W,Stonyford,NA,NA,FALSE,FALSE,498,9.66,USC00048587,244,27.55
-122.653,39.362,SOU1,South Fork,NF,530-934-1250/530-934-3316,NA,NA,5,NH ND VT NW NS NR,CA,W,Stonyford,vault,FALSE,FALSE,FALSE,493,9.33,USC00048587,244,26.9
-122.654,39.362,FOUT,Fouts,NF,530-934-1250/530-934-3316,NA,NA,11,NH ND 16ft VT DW NS NR,CA,W,Stonyford,vault,TRUE,FALSE,FALSE,496,9.5,USC00048587,244,26.93
-122.656,39.362,DAVI,Davis Flat,NF,530-934-1250/530-934-3316,NA,NA,29,30ft VT DW NR,CA,S,Elk Creek,vault,TRUE,FALSE,NA,485,28.81,USC00048587,244,27
-120.408,37.701,FLEM,Fleming Meadow - Don Pedro Rec Area,CP,408-262-7731,NA,NA,195,E DP FT DW SH,CA,NE,La Grange,flush,TRUE,NA,TRUE,NA,6.44,USC00043669,853,22.61
-121.574,36.326,WHIO,White Oaks,NF,831-385-5434/805-961-5778,NA,NA,7,NH ND VT NW NS NR,CA,W,Greenfield,vault,FALSE,FALSE,FALSE,1225,29.61,USC00040790,61,20.49
-121.783,36.249,PFEI,Pfeiffer Big Sur State Park,SP,831-667-2315,mid may-late dec,NA,158,NH DP 32ft FT DW SH RS,CA,SE,Big Sur,flush,TRUE,TRUE,TRUE,NA,3.38,USC00040790,61,0.31
-122.648,39.379,NORK,North Fork,NF,530-934-1250/530-934-3316,NA,NA,5,NR,CA,W,Stonyford,NA,NA,FALSE,NA,460,8.85,USC00048587,244,24.99
-121.632,39.276,LIVE,Live Oak Riverfront Park,CP,530-822-7410,NA,NA,21,W  ND PT DW NS NR L$,CA,NA,Live Oak,pit,TRUE,FALSE,FALSE,NA,NA,USW00093205,19,20.11
-121.141,36.499,PINL,Pinnacles,NM,831-389-4538,all year,has pool,78,E DP FT DW SH RS PA,CA,E,Pinnacles,flush,TRUE,TRUE,TRUE,NA,3.86,USC00046926,398,4.15
-120.342,37.83,MOCC,Moccasin Point - Don Pedro State Rec Area,SP,209-852-2396,NA,NA,89,WE DP FT DW SH NR,CA,W,Groveland,flush,TRUE,FALSE,TRUE,NA,9.82,USC00043669,853,10.35
-120.752,38.799,FINN,Finnon Lake,CP,530-622-6832,NA,NA,14,E ND NS,CA,NE,Placerville,NA,NA,NA,FALSE,739,8.69,USC00046961,810,1.76
-120.933,38.964,RUCK,Rucky A Chucky - Auburn State Rec Area,SRA,530-885-4527,NA,primitive - 2.5 mile dirt road - unknown facilities,5,20ft NW NR,CA,NA,NA,NA,FALSE,FALSE,NA,NA,NA,USC00043384,915,11.96
-123.064,39.377,TROU,Trout Creek,UTIL,NA,NA,NA,17,NH ND VT DW NS PA,CA,NE,Potter Valley,vault,TRUE,NA,FALSE,493,7.4,USC00047109,310,5.81
-122.825,39.443,LOWN,Lower Nye,NF,707-275-2361/530-934-3316,mid may-mid nov,NA,6,NH ND NW NS NR N$,CA,N,Upper Lake,NA,FALSE,FALSE,FALSE,1011,31.86,USC00047109,310,27.66
-120.288,37.642,BART,Barrett Cove Rec Area,COE,NA,NA,NA,275,E DP FT DW SH NR,CA,E,La Grange,flush,TRUE,FALSE,TRUE,NA,15.61,USC00043669,853,23.12
-123.665,39.171,NAVV,Navarro River Redwoods State Park,SP,707-937-5804,NA,NA,35,NH 30ft VT DW NR,CA,SE,Albion,vault,TRUE,FALSE,NA,NA,10.62,USC00043161,38,38.37
-120.297,37.523,LAKW,Lake McSwain Rec Area,COE,NA,NA,NA,99,E DP 40ft FT DW SH NR,CA,E,Snelling,flush,TRUE,FALSE,TRUE,NA,12.39,USC00045532,47,32.41
-120.276,37.609,MCCP,McClure Point Rec Area,UTIL,NA,NA,NA,100,E DP 40ft FT DW SH,CA,NE,Snelling,flush,TRUE,NA,TRUE,NA,17.38,USC00043669,853,26.5
-121.483,36.235,ARRO,Arroyo Seco,NF,831-385-5434/805-961-5778,all year,NA,40,NH ND 26ft FT DW SH RS,CA,SW,Greenfield,flush,TRUE,TRUE,TRUE,NA,23.5,USC00040790,61,26.76
-122.939,39.439,SUN1,Sunset Point  - Lake Pillsbury,NF,707-275-2361/530-934-3316,NA,NA,54,NH ND 40ft VT DW NS NR,CA,N,Upper Lake,vault,TRUE,FALSE,FALSE,592,30.58,USC00047109,310,18.44
-122.968,39.436,FULG,Fuller Grove - Lake Pillsbury,UTIL,707-275-2361/530-934-3316,NA,NA,30,NH ND 42ft VT DW NS,CA,NE,Potter Valley,vault,TRUE,NA,FALSE,560,17.86,USC00047109,310,16.1
-122.957,39.442,NAVY,Navy Camp - Lake Pillsbury,NF,707-275-2361/530-934-3316,NA,NA,20,NH ND 20ft VT DW NS NR,CA,NE,Ukiah,vault,TRUE,FALSE,FALSE,560,38.95,USC00047109,310,17.25
-122.953,39.443,OAFL,Oak Flat Overflow - Lake Pillsbury,NF,707-275-2361/530-934-3316,NA,NA,12,NH ND 40ft VT DW NS NR,CA,N,Upper Lake,vault,TRUE,FALSE,FALSE,561,31.22,USC00047109,310,17.6
-122.953,39.444,OAKF,Oak Flat - Lake Pillsbury,NF,707-275-2361/530-934-3316,NA,NA,12,NH VT NW NR,CA,NE,Calpella,vault,FALSE,FALSE,NA,562,31.7,USC00047109,310,17.66
-122.968,39.442,POGI,Pogie Point - Lake Pillsbury,NF,707-275-2361/530-934-3316,NA,NA,50,NH ND 30ft NS NR,CA,NE,Potter Valley,NA,NA,FALSE,FALSE,561,18.35,USC00047109,310,16.45
-120.989,39.084,BERC,Bear River County Park,CP,530-886-4901,mid jun-mid oct,NA,23,NH ND VT DW NS,CA,SW,Colfax,vault,TRUE,NA,FALSE,1813,3.54,USC00041912,725,3.63
-120.242,37.7,HORB,Horseshoe Bend Rec Area,COE,NA,NA,NA,110,E DP FT DW SH NR,CA,W,Coulterville,flush,TRUE,FALSE,TRUE,NA,4.18,USC00043669,853,16.09
-120.57,38.725,SLYR,Sly Park,CP,530-295-6810,NA,8 campgrounds - ungrouped,191,NH ND VT DW NS RS,CA,NA,Pollock Pines,vault,TRUE,TRUE,FALSE,1067,NA,USC00046597,1052,6.89
-120.765,38.942,DRUB,Dru Barner,NF,530-333-4312/530-622-5061,NA,NA,47,NH ND DW NS NR,CA,NE,Georgetown,NA,TRUE,FALSE,FALSE,977,7.4,USC00043384,915,3.26
-120.557,38.727,PINE,Pine Cone  - Sly Park Recreation Area,CP,530-644-2545,NA,NA,NA,NH ND VT DW NS RS,CA,SE,Pollock Pines,vault,TRUE,TRUE,FALSE,1072,4.51,USC00046597,1052,5.83
-120.549,38.726,SIER,Sierra  - Sly Park Recreation Area,CP,530-644-2545,NA,NA,NA,NH ND NS,CA,SE,Pollock Pines,NA,NA,NA,FALSE,1061,5.15,USC00046597,1052,5.36
-120.433,38.567,PIPI,Pipi,NF,209-295-4251/530-622-5061,mid apr-late sep,NA,51,NH ND 35ft VT DW NS RS PA,CA,NE,Pioneer,vault,TRUE,TRUE,FALSE,1215,19.31,USC00046597,1052,22.1
-120.288,38.272,CALA,Calaveras Big Trees State Park,SP,209-795-2334,mid may-late dec,NA,129,NH ND 30ft FT DW SH RS,CA,E,Arnold,flush,TRUE,TRUE,TRUE,1375,5.79,USC00041277,1431,2.12
-120.546,38.729,JENK,Jenkinson  - Sly Park Recreation Area,CP,530-644-2545,NA,NA,NA,NH ND VT DW NS RS,CA,SE,Pollock Pines,vault,TRUE,TRUE,FALSE,1102,4.99,USC00046597,1052,4.95
-120.544,38.732,STON,Stonebraker  - Sly Park Recreation Area,CP,530-644-2545,NA,NA,NA,NH ND VT DW NS RS,CA,SE,Pollock Pines,vault,TRUE,TRUE,FALSE,1120,4.99,USC00046597,1052,4.6
-120.542,38.735,HILL,Hilltop  - Sly Park Recreation Area,CP,530-644-2545,NA,NA,NA,NH ND VT DW NS RS,CA,SE,Pollock Pines,vault,TRUE,TRUE,FALSE,1116,4.83,USC00046597,1052,4.26
-120.538,38.734,CHIM,Chimney  - Sly Park Recreation Area,CP,530-644-2545,NA,NA,NA,NH ND VT DW NS RS,CA,SE,Pollock Pines,vault,TRUE,TRUE,FALSE,1063,5.15,USC00046597,1052,4.06
-120.924,39.101,MINB,Mineral Bar - Auburn State Rec Area,SRA,530-885-4527,NA,NA,18,NH ND 24ft PT NW NS NR,CA,E,Colfax,pit,FALSE,FALSE,FALSE,NA,2.57,USC00041912,725,2.36
-120.531,38.739,HAZE,Hazel Creek  - Sly Park Recreation Area,CP,530-644-2545,NA,NA,NA,NH ND VT DW NS RS,CA,SE,Pollock Pines,vault,TRUE,TRUE,FALSE,1062,5.47,USC00046597,1052,3.24
-120.528,38.739,RAIN,Rainbow  - Sly Park Recreation Area,CP,530-644-2545,NA,NA,NA,NH ND VT DW NS RS,CA,SE,Pollock Pines,vault,TRUE,TRUE,FALSE,1074,5.63,USC00046597,1052,3.05
-121.077,39.206,NEVA,Nevada County Fairgrounds,CP,530-273-6217,NA,NA,NA,E DP DW SH,CA,SW,Grass Valley,NA,TRUE,NA,TRUE,744,2.09,USC00043573,732,0.79
-120.526,38.742,DEER,Deerwood  - Sly Park Recreation Area,CP,530-644-2545,NA,NA,NA,NH ND VT DW NS RS,CA,SE,Pollock Pines,vault,TRUE,TRUE,FALSE,1099,5.63,USC00046597,1052,2.69
-120.522,38.741,KANE,Kane XXX  - Sly Park Recreation Area,CP,530-644-2545,NA,NA,NA,NH ND VT DW NS RS,CA,E,Pollock Pines,vault,TRUE,TRUE,FALSE,1089,6.12,USC00046597,1052,2.53
-120.182,37.993,RIVR,River Ranch,NF,209-928-3708,NA,part private,38,NH 22ft VT DW NR,CA,SE,Twain Harte,vault,TRUE,FALSE,NA,762,6.6,USC00043669,853,16.94
-120.181,37.996,HACI,Hacienda,NF,209-586-3234/209-533-3671,NA,NA,8,NR,CA,SE,Twain Harte,NA,NA,FALSE,NA,792,6.44,USC00043669,853,17.28
-121.495,36.141,ESCO,Escondido,NF,831-385-5434/805-961-5778,NA,NA,9,NH ND VT NW NS NR N$,CA,SW,Greenfield,vault,FALSE,FALSE,FALSE,667,30.09,USC00040790,61,28.24
-120.234,38.301,BOAR,Boards Crossing,NF,209-795-1381/209-533-3671,NA,NA,10,NH ND VT NW NS NR,CA,NA,NA,vault,FALSE,FALSE,FALSE,1219,NA,USC00041277,1431,7.28
-120.406,38.651,CAPP,Capps Crossing,NF,530-644-2324/530-622-5061,mid may-mid sep,NA,11,NH ND VT DW NS RS,CA,SE,Pollock Pines,vault,TRUE,TRUE,FALSE,1561,19.79,USC00046597,1052,14.6
-122.525,39.592,GRIM,Grimy Gulch - Stony Gorge Reservoir - USBR,BOR,NA,NA,has picnic tables,NA,NH ND NS NR N$,CA,SE,Elk Creek,NA,NA,FALSE,FALSE,NA,1.93,USC00048587,244,1.03
-122.525,39.592,STON,Stony Gorge Reservoir,BOR,NA,NA,several campgrounds - unknown facil,NA,NH ND PT NW NS NR,CA,SE,Elk Creek,pit,FALSE,FALSE,FALSE,NA,1.93,USC00048587,244,1.03
-120.136,37.61,BAGB,Bagby Rec Area,COE,NA,NA,NA,30,E ND FT DW SH NR,CA,SE,Coulterville,flush,TRUE,FALSE,TRUE,NA,12.39,USC00043669,853,27.19
-120.603,38.906,PONC,Ponderosa Cove,NF,530-333-4312/530-622-5061,NA,NA,18,NH ND NS NR,CA,N,Pollock Pines,NA,NA,FALSE,FALSE,1316,16.09,USC00043384,915,17.42
-121.466,36.118,MEMO,Memorial Park,NF,831-385-5434/805-961-5778,NA,NA,8,NH ND VT NW NS NR N$,CA,SW,Greenfield,vault,FALSE,FALSE,FALSE,649,30.09,USC00044555,98,31.13
-120.214,38.325,WAKA,Wa Ka Luu Hep Yoo,NF,209-795-1381/209-533-3671,NA,NA,52,NH ND 50ft FT DW SH NR,CA,NE,Arnold,flush,TRUE,FALSE,TRUE,1250,14.16,USC00041277,1431,10.05
-120.591,38.904,STUM,Stumpy Meadows,NF,530-333-4312/530-622-5061,mid apr-mid oct,NA,40,NH ND 35ft VT DW NS RS,CA,E,Georgetown,vault,TRUE,TRUE,FALSE,1361,21.4,USC00046597,1052,17.88
-120.271,38.478,MOKE,Mokelumne,NF,209-295-4251/530-622-5061,NA,NA,13,NH ND VT NW NS NR,CA,E,Jackson,vault,FALSE,FALSE,FALSE,2798,46.19,USC00041277,1431,22.6
-120.271,38.478,MOKR,Mokelumne River,NF,209-795-1381/209-533-3671,NA,NA,13,NH ND VT NW NS NR,CA,E,West Point,vault,FALSE,FALSE,FALSE,989,23.98,USC00041277,1431,22.6
-120.155,38.184,SANF,Sand Bar Flat,NF,209-586-3234/209-533-3671,NA,NA,10,NH ND 22ft VT DW NS NR L$,CA,N,Mi-Wuk,vault,TRUE,FALSE,FALSE,861,23.66,USC00041277,1431,17.14
-120.267,38.48,MOOR,Moore Creek,NF,209-795-1381/209-533-3671,mid may-late aug,NA,8,NH ND VT NW NS RS,CA,SE,Pollock Pines,vault,FALSE,TRUE,FALSE,1019,41.84,USC00041277,1431,22.88
-120.093,37.819,PINE,The Pines,NF,209-962-7825/209-533-3671,NA,NA,11,NH ND 22ft VT DW NS NR,CA,E,Groveland,vault,TRUE,FALSE,FALSE,1010,12.39,USC00043669,853,12.03
-123.787,39.279,VAND,Van Damme State Park,SP,707-937-5804,mid may-late dec,NA,70,NH DP 35ft FT DW SH RS,CA,S,Mendocino,flush,TRUE,TRUE,TRUE,NA,3.38,USC00043161,38,25.69
-120.301,38.583,MIDF,Middlefork Cosumnes,NF,209-295-4251/530-622-5061,mid may-mid nov,Site no 19 is lg camp at end of campground,19,NH ND 30ft VT NW NS NR,CA,E,Placerville,vault,FALSE,FALSE,FALSE,1603,46.19,USC00046597,1052,26.23
-121.153,36.207,SANR,San Lorenzo,CP,831-755-4895,NA,NA,NA,E DP FT DW SH,CA,W,King City,flush,TRUE,NA,TRUE,NA,2.57,USC00044555,98,1.37
-120.792,39.139,GIAN,Giant Gap,NF,530-367-2224/530-265-4531,mid may-late sep,NA,35,NH 35ft VT DW NS RS,CA,N,Foresthill,vault,TRUE,TRUE,FALSE,1119,13.36,USC00041912,725,14.51
-120.786,39.144,SHIR,Shirttail,NF,530-367-2224/530-265-4531,mid may-late sep,NA,30,NH DP 35ft VT DW NS RS,CA,N,Foresthill,vault,TRUE,TRUE,FALSE,1128,14.16,USC00041912,725,15.2
-120.244,38.534,SOUS,South Shore,NF,209-295-4251/530-622-5061,mid jun-late sep,NA,22,NH ND VT DW NS RS,CA,E,Pioneer,vault,TRUE,TRUE,FALSE,3096,30.74,USS0019L45S,2546,28.09
-120.049,37.839,LUMD,Lumsden,NF,209-962-7825/209-533-3671,all year,NA,10,NH ND 22ft VT NW NS NR N$,CA,E,Groveland,vault,FALSE,FALSE,FALSE,NA,15.93,USC00043669,853,15.57
-120.24,38.537,PARP,Pardoes Point,NF,209-295-4251/530-622-5061,mid may-mid nov,NA,10,NH ND VT NW NS NR,CA,E,Pioneer,vault,FALSE,FALSE,FALSE,1829,31.22,USS0019L45S,2546,27.61
-120.048,37.821,LOST,Lost Claim,NF,209-962-7825/209-533-3671,NA,NA,10,NH ND 22ft VT DW NS NR,CA,E,Groveland,vault,TRUE,FALSE,FALSE,933,16.09,USC00043669,853,15.87
-120.046,37.838,SOU2,South Fork,NF,209-962-7825/209-533-3671,all year,NA,9,NH ND 22ft VT NW NS NR N$,CA,E,Big Oak Flat,vault,FALSE,FALSE,FALSE,471,18.67,USC00043669,853,15.84
-120.241,38.547,SUGP,Sugar Pine Point,NF,209-295-4251/530-622-5061,NA,NA,8,NH VT NW NR,CA,NE,Pioneer,vault,FALSE,FALSE,NA,1890,31.54,USS0019L45S,2546,27.02
-123.779,39.331,RUSS,Russian Gulch State Park,SP,707-937-5804,mid may-late dec,NA,30,NH ND 24ft FT DW SH RS,CA,NE,Mendocino,flush,TRUE,TRUE,TRUE,NA,3.22,USC00043161,38,19.88
-120.754,39.144,BIGE,Big Reservoir,NF,530-367-2224/530-265-4531,NA,NA,19,NH DP 30ft VT DW SH NR,CA,N,Foresthill,vault,TRUE,FALSE,TRUE,1263,14.81,USW00023225,1608,15.29
-120.032,37.848,LUMS,Lumsden Bridge,NF,209-962-7825/209-533-3671,all year,NA,9,NH ND 22ft VT NW NS NR N$,CA,E,Groveland,vault,FALSE,FALSE,FALSE,471,17.54,USC00043669,853,17.06
-120.07,38.17,FRAS,Fraser Flat,NF,209-965-3434/209-533-3671,NA,NA,38,NH DP 22ft VT DW NS NR,CA,NE,Mi-Wuk,vault,TRUE,FALSE,FALSE,1462,25.59,USC00041277,1431,24.24
-120.075,38.21,BEAD,Beardsley Dam,NF,209-965-3434/209-533-3671,NA,NA,16,NH ND 22ft VT NW NS NR N$,CA,NA,NA,vault,FALSE,FALSE,FALSE,1017,NA,USC00041277,1431,21.99
-120.44,38.871,WESP,West Point,NF,530-644-2349/530-622-5061,NA,NA,8,NH ND VT NW NS NR N$,CA,NA,NA,vault,FALSE,FALSE,FALSE,1526,NA,USC00046597,1052,13.66
-121.518,36.01,LIMK,Limekiln State Park,SP,831-667-2403,mid may-late dec,NA,31,NH ND 24ft FT DW SH RS,CA,SE,Big Sur,flush,TRUE,TRUE,TRUE,NA,38.95,USC00040790,61,35.36
-120.042,38.094,HULL,Hull Creek,NF,209-586-3234/209-533-3671,NA,NA,18,NH ND 22ft VT DW NS NR L$,CA,NE,Mi-Wuk,vault,TRUE,FALSE,FALSE,1717,21.08,USC00041697,1452,17.25
-121.459,39.533,BIDC,Bidwell Canyon - Lake Oroville State Rec Area,SRA,530-538-2200,all year,NA,75,E 40ft FT DW RS,CA,E,Oroville,flush,TRUE,TRUE,NA,NA,8.69,USC00046521,52,8.27
-121.447,39.529,LOAF,Loafer Creek - Lake Oroville State Rec Area,SRA,530-538-2200,all year,NA,NA,NH DP RS,CA,E,Oroville,NA,NA,TRUE,NA,NA,9.5,USC00046521,52,9.21
-120.002,37.824,SWEW,Sweetwater,NF,209-962-7825/209-533-3671,NA,NA,12,NH ND 22ft VT DW NS NR,CA,E,Groveland,vault,TRUE,FALSE,FALSE,934,20.12,USW00053150,2018,17.51
-120.008,37.61,RAIL,Railroad Flat,BLM,209-379-9414,NA,NA,6,NH ND PT NW NS NR L$,CA,NA,NA,pit,FALSE,FALSE,FALSE,NA,NA,USW00053150,2018,23.39
-120.325,38.763,SAN2,Sand Flat,NF,530-644-2324/530-622-5061,mid may-mid sep,NA,29,NH ND 40ft VT DW NS NR,CA,E,Placerville,vault,TRUE,FALSE,FALSE,1198,41.2,USC00046597,1052,15.49
-120.414,38.88,CACO,Camino Cove,NF,530-644-2349/530-622-5061,NA,NA,32,NH ND VT NW NS NR N$,CA,NE,Pollock Pines,vault,FALSE,FALSE,FALSE,1494,19.96,USC00046597,1052,15.57
-120.403,38.868,SUN2,Sunset,NF,530-644-2349/530-622-5061,early jun-late aug,NA,139,NH ND 35ft VT DW SH RS,CA,NE,Pollock Pines,vault,TRUE,TRUE,TRUE,1519,19.79,USC00046597,1052,14.96
-120.003,37.597,MCCA,McCabe Flat,BLM,NA,NA,swim in river,3,NH ND 18ft PT NW NS NR L$,CA,N,Mariposa,pit,FALSE,FALSE,FALSE,NA,12.87,USW00053150,2018,24.13
-121.496,35.99,KIRK,Kirk Creek,NF,831-385-5434/805-961-5778,all year,operated under contract - no potable water,33,NH ND 30ft FT NW NS RS PA,CA,SE,Lucia,flush,FALSE,TRUE,FALSE,NA,5.95,USC00040790,61,38.34
-120.396,38.869,FASH,Fashoda,NF,530-644-2349/530-622-5061,early jun-late aug,Tent only,30,NH ND DW SH RS,CA,NE,Pollock Pines,NA,TRUE,TRUE,TRUE,1494,20.44,USC00046597,1052,15.41
-121.121,39.418,SCHL,Schoolhouse,NF,530-288-3231/530-265-4531,NA,NA,70,NH ND 32ft FTVT DW NS NR,CA,SW,Camptonville,flush_and_vault,TRUE,FALSE,FALSE,704,7.24,USC00048606,1161,16.15
-120.383,38.859,JONF,Jones Fork,NF,530-644-2349/530-622-5061,mid may-mid oct,NA,10,NH ND 35ft VT NW NS NR,CA,NE,Pollock Pines,vault,FALSE,FALSE,FALSE,1547,20.76,USC00046597,1052,15.29
-120.106,38.417,BIG2,Big Meadow,NF,209-795-1381/209-533-3671,early jun-late aug,NA,68,NH ND 27ft VT DW NS RS,CA,NE,Arnold,vault,TRUE,TRUE,FALSE,2e3,27.84,USC00041277,1431,23.75
-120.385,38.864,LONE,Lone Rock,NF,530-644-2349/530-622-5061,NA,NA,5,NH ND VT NW NS NR N$,CA,NW,Kyburz,vault,FALSE,FALSE,FALSE,1516,12.55,USC00046597,1052,15.59
-120.968,39.342,SOUY,South Yuba,BLM,NA,NA,NA,16,NH 27ft VT DW NR L$,CA,NE,Nevada City,vault,TRUE,FALSE,NA,921,9.82,USC00046136,848,10.95
-120.357,38.832,ICEH,Ice House,NF,530-644-2349/530-622-5061,early jun-late sep,NA,83,NH DP 35ft VT DW NS RS,CA,E,Pollock Pines,vault,TRUE,TRUE,FALSE,1684,21.4,USC00046597,1052,15.1
-120.347,38.831,NORW,Northwind,NF,530-644-2349/530-622-5061,mid may-mid oct,NA,9,NH ND 30ft VT NW NS NR,CA,E,Placerville,vault,FALSE,FALSE,FALSE,1671,40.72,USC00046597,1052,15.78
-121.123,39.433,GARD,Garden Point,NF,530-288-3231/530-265-4531,NA,NA,20,NH NR,CA,W,Camptonville,NA,NA,FALSE,NA,594,6.76,USC00048606,1161,14.5
-121.108,39.429,DARK,Dark Day,NF,530-288-3231/530-265-4531,NA,NA,15,NH ND VT DW NS NR,CA,SW,Camptonville,vault,TRUE,FALSE,FALSE,620,5.63,USC00048606,1161,14.89
-120.338,38.828,STRP,Strawberry Point,NF,530-644-2349/530-622-5061,mid may-mid oct,NA,10,NH ND 35ft VT NW NS NR,CA,E,Placerville,vault,FALSE,FALSE,FALSE,1673,41.36,USC00046597,1052,16.3
-120.388,38.89,YELL,Yellowjacket,NF,530-644-2349/530-622-5061,early jun-late aug,NA,40,NH DP 35ft FTVT DW NS RS,CA,NE,Pollock Pines,flush_and_vault,TRUE,TRUE,FALSE,1523,22.37,USC00046597,1052,17.71
-121.395,36.005,NACI,Nacimiento,NF,831-385-5434/805-961-5778,NA,NA,8,NH ND 25ft VT NW NS NR,CA,SE,Big Sur,vault,FALSE,FALSE,FALSE,505,47.48,USC00044555,98,32.22
-120.005,38.186,MEAV,Meadowview,NF,209-965-3434/209-533-3671,NA,NA,100,NH ND 22ft FT DW NS NR,CA,NE,Mi-Wuk,flush,TRUE,FALSE,FALSE,1720,30.42,USC00041697,1452,24.72
-120.08,38.411,SAN3,Sand Flat,NF,209-965-3434/209-533-3671,NA,NA,5,NH ND VT NW NS NR,CA,NA,NA,vault,FALSE,FALSE,FALSE,1772,NA,USC00041277,1431,25.12
-121.151,39.458,FREN,Frenchy Point,NF,530-288-3231/530-265-4531,NA,NA,9,NR,CA,W,Camptonville,NA,NA,FALSE,NA,637,8.85,USC00048606,1161,12.25
-120.268,38.754,CHIT,China Flat,NF,530-644-2324/530-622-5061,mid may-mid sep,NA,19,NH ND 40ft VT DW NS NR,CA,SE,Kyburz,vault,TRUE,FALSE,FALSE,1436,3.38,USS0020L06S,2338,19.5
-121.13,39.452,BULS,Bullards Lakeshore,NF,530-288-3231/530-265-4531,NA,no failities,60,NH ND NT NW NS NR,CA,W,Camptonville,none,FALSE,FALSE,FALSE,659,6.92,USC00048606,1161,12.48
-120.374,38.889,WENC,Wench Creek,NF,530-644-2349/530-622-5061,early jun-mid sep,NA,2,NH ND 40ft FTVT DW NS RS,CA,NE,Pollock Pines,flush_and_vault,TRUE,TRUE,FALSE,1516,23.17,USC00046597,1052,18.34
-121.384,35.998,POND,Ponderosa,NF,831-385-5434/805-961-5778,all year,NA,23,NH ND 32ft VT DW NS RS PA,CA,NW,San Simeon,vault,TRUE,TRUE,FALSE,473,42.97,USC00044555,98,32.07
-119.995,38.19,PINR,Pinecrest,NF,209-965-3434/209-533-3671,early may-mid oct,NA,200,NH ND 22ft FT DW NS RS,CA,NE,Mi-Wuk,flush,TRUE,TRUE,FALSE,1733,31.38,USC00041697,1452,24.88
-120.207,38.699,SILF,Silver Fork,NF,530-644-2324/530-622-5061,mid may-mid sep,NA,35,NH ND 40ft VT DW NS NR,CA,NE,Pioneer,vault,TRUE,FALSE,FALSE,1698,43.45,USS0019L45S,2546,18.9
-120.847,39.32,WHCH,White Cloud,NF,530-288-3231/530-265-4531,mid may-mid sep,NA,46,NH ND 28ft FT DW NS RS,CA,NE,Nevada City,flush,TRUE,TRUE,FALSE,1347,15.93,USW00023225,1608,12.7
-121.946,39.718,BIDW,Bidwell - Sacramento River State Park,SP,530-342-5185,NA,NA,NA,NR,CA,W,Chico,NA,NA,FALSE,NA,NA,9.33,USC00041715,56,11.12
-122.845,39.729,PLAM,Plaskett Meadows,NF,530-934-1250/530-934-3316,mid may-mid nov,NA,35,NH ND 16ft VT DW NS NR L$,CA,NW,Elk Creek,vault,TRUE,FALSE,FALSE,1854,29.45,USC00048587,244,31.03
-120.046,38.422,STAN,Stanislaus River,NF,209-795-1381/209-533-3671,NA,NA,25,NH ND 35ft VT DW NS NR L$,CA,NE,Arnold,vault,TRUE,FALSE,FALSE,1899,32.35,USS0019L05S,2456,23.59
-119.944,37.465,MAPO,Mariposa Fairgrounds,CP,209-966-2432,NA,NA,NA,E DP DW SH,CA,SE,Mariposa,NA,TRUE,NA,TRUE,563,2.9,USC00048380,1538,27.99
-120.9,39.373,MALA,Malakoff Diggins State Park,SP,530-265-2740,all year,NA,NA,NH ND 24ft FT DW NS RS,CA,NE,Nevada City,flush,TRUE,TRUE,FALSE,1022,15.93,USC00046136,848,16.5
-119.915,37.987,CHEV,Cherry Valley,NF,209-962-7825/209-533-3671,NA,NA,45,NH ND 22ft VT DW NS NR,CA,NE,Groveland,vault,TRUE,FALSE,FALSE,1506,32.19,USC00041697,1452,1.37
-120.392,38.975,GERL,Gerle Creek,NF,530-644-2349/530-622-5061,mid may-late aug,NA,50,NH ND 35ft VT DW NS RS,CA,NE,Pollock Pines,vault,TRUE,TRUE,FALSE,1618,29.13,USS0020L02S,2344,22.87
-122.353,39.772,ORLA,Orland Buttes Rec Area,COE,530-865-4781,early apr-mid sep,NA,33,NH DP DW SH RS,CA,W,Orland,NA,TRUE,TRUE,TRUE,NA,13.68,USC00046506,77,13.46
-119.97,38.28,CASC,Cascade Creek,NF,209-965-3434/209-533-3671,NA,NA,14,NH ND 22ft VT NW NS NR L$,CA,NE,Mi-Wuk,vault,FALSE,FALSE,FALSE,1864,40.56,USC00041277,1431,29.87
-120.79,39.318,SKIL,Skillman,NF,530-478-0248,mid may-mid sep,horse camp,NA,NH ND NS RS,CA,E,Nevada City,NA,NA,TRUE,FALSE,1367,20.44,USW00023225,1608,8.21
-121.467,35.918,PLAT,Plaskett Creek,NF,831-385-5434/805-961-5778,all year,Temporary non-potable water in Oct 2010,42,NH ND 30ft FT DW NS RS PA,CA,SE,Lucia,flush,TRUE,TRUE,FALSE,NA,13.68,USC00043882,465,37.44
-120.38,38.985,AIRP,Airport Flat,NF,530-644-2349/530-622-5061,mid may-mid oct,NA,16,NH ND VT DW NS NR N$,CA,NE,Pollock Pines,vault,TRUE,FALSE,FALSE,1647,30.74,USS0020L02S,2344,21.72
-121.567,39.677,LIMS,Limesaddle - Lake Oroville State Rec Area,SRA,530-538-2200,all year,NA,NA,NH RS,CA,N,Oroville,NA,NA,TRUE,NA,NA,18.19,USC00046685,533,9.85
-119.997,38.409,SPIC,Spicer Meadow,NF,NA,NA,NA,43,NH ND 50ft VT DW NS NR,CA,S,Lake Tahoe,vault,TRUE,FALSE,FALSE,1998,78.05,USS0019L19S,2672,23.25
-120.024,38.476,LODO,Lodgepole Overflow,NF,209-795-1381/209-533-3671,NA,NA,30,NH ND VT DW NS NR L$,CA,NE,Bear Valley,vault,TRUE,FALSE,FALSE,2245,1.77,USS0019L05S,2456,17.42
-119.935,38.249,HERR,Herring Reservoir,NF,209-965-3434/209-533-3671,NA,NA,42,NH ND 22ft VT NW NS NR N$,CA,NE,Bumblebee,vault,FALSE,FALSE,FALSE,2275,6.28,USS0019L38S,2931,28.65
-120.121,38.672,SIL3,Silver Lake,NF,209-295-4251/530-622-5061,NA,NA,62,NH ND NS NR,CA,E,Eldorado,NA,NA,FALSE,FALSE,2552,28.49,USS0019L45S,2546,11.57
-119.932,38.244,HERC,Herring Creek,NF,209-965-3434/209-533-3671,NA,NA,7,NH ND 22ft VT NW NS NR N$,CA,NE,Bumblebee,vault,FALSE,FALSE,FALSE,2263,6.12,USS0019L38S,2931,28.46
-119.87,37.863,DIAM,Diamond O,NF,209-965-3434/209-533-3671,NA,NA,31,NH ND VT DW NS NR,CA,E,Groveland,vault,TRUE,FALSE,FALSE,1337,31.86,USW00053150,2018,12.31
-120.017,38.481,SILT,Silvertip,NF,209-795-1381/209-533-3671,NA,NA,23,NH ND FT DW NS NR,CA,NE,Bear Valley,flush,TRUE,FALSE,FALSE,2307,2.74,USS0019L05S,2456,16.63
-119.868,37.797,HODG,Hodgdon Meadow - Yosemite National Park,NP,209-372-0200,mid apr-late dec,NA,NA,NH 35ft FT DW NS RS PA,CA,E,Groveland,flush,TRUE,TRUE,FALSE,1517,32.19,USW00053150,2018,5.91
-120.238,38.846,WRIG,Wrights Lake,NF,530-644-2349/530-622-5061,early jul-late sep,NA,70,NH VT DW RS,CA,NE,Kyburz,vault,TRUE,TRUE,NA,2722,9.5,USS0020L06S,2338,13.72
-123.794,39.493,MACK,MacKerricher State Park,SP,707-964-9112,mid may-late dec,NA,148,NH DP 35ft FT DW SH RS,CA,N,Mendocino,flush,TRUE,TRUE,TRUE,NA,20.6,USC00043161,38,3.68
-120.005,38.477,LAKA,Lake Alpine,NF,209-795-1381/209-533-3671,NA,NA,25,NH ND 27ft FT DW NS NR,CA,NE,Arnold,flush,TRUE,FALSE,FALSE,2256,38.95,USS0019L05S,2456,16.52
-119.937,38.302,MILR,Mill Creek,NF,209-965-3434/209-533-3671,NA,NA,17,NH ND 22ft VT NW NS NR L$,CA,NE,Mi-Wuk,vault,FALSE,FALSE,FALSE,1935,44.26,USS0019L38S,2931,28.71
-119.962,37.214,CODO,Codorniz Rec Area,COE,559-689-3255,all year,NA,62,WES DP FT DW SH RS PA,CA,E,Chowchilla,flush,TRUE,TRUE,TRUE,NA,28.32,USW00093242,77,28.37
-122.362,39.811,BUCA,Buckhorn Rec Area,COE,530-865-4781,all year,NA,NA,NH DP DW SH RS L$,CA,NW,Orland,NA,TRUE,TRUE,TRUE,NA,15.77,USC00046506,77,15.68
-120.425,39.075,BIME,Big Meadows,NF,530-333-4312/530-622-5061,mid may-mid oct,NA,54,NH ND 40ft FTVT DW NS NR,CA,E,Foresthill,flush_and_vault,TRUE,FALSE,FALSE,1649,34.44,USS0020K25S,2028,19.14
-120.657,39.27,NORR,North Fork,NF,530-288-3231/530-265-4531,mid may-mid sep,NA,17,NH ND 35ft VT DW NS RS,CA,NE,Dutch Flat,vault,TRUE,TRUE,FALSE,1466,17.06,USW00023225,1608,4.67
-120.416,39.069,HELL,Hell Hole,NF,530-333-4312/530-622-5061,mid may-mid oct,NA,10,NH ND VT DW NS NR,CA,NE,Georgetown,vault,TRUE,FALSE,FALSE,1561,40.72,USS0020K25S,2028,18.7
-120.502,39.156,ROBF,Robinson Flat,NF,530-367-2224/530-265-4531,NA,NA,14,NH ND 25ft VT DW NS NR N$,CA,NE,Foresthill,vault,TRUE,FALSE,FALSE,2062,31.22,USS0020K30S,2447,21.25
-119.848,37.661,INDA,Indian Flat,NA,559-297-0706,all year,NA,NA,WES DP FT DW SH N$,CA,W,El Portal,flush,TRUE,NA,TRUE,519,5.79,USW00053150,2018,11.16
-119.989,38.482,PNMT,Pine Marten,NF,209-795-1381/209-533-3671,NA,NA,32,NH ND 27ft FT DW NS NR,CA,NE,Bear Valley,flush,TRUE,FALSE,FALSE,2248,4.83,USS0019L05S,2456,15.43
-119.986,38.481,SILL,Silver Valley,NF,209-795-1381/209-533-3671,NA,NA,21,NH ND 27ft FT DW NS NR,CA,NE,Arnold,flush,TRUE,FALSE,FALSE,2265,40.56,USS0019L05S,2456,15.43
-120.316,38.981,LOON,Loon Lake,NF,530-644-2349/530-622-5061,mid jun-late sep,NA,53,NH ND 35ft VT DW NS RS,CA,NE,Pollock Pines,vault,TRUE,TRUE,FALSE,1980,33.8,USS0020L02S,2344,16.25
-119.837,37.671,DIRT,Dirt Flat,NF,559-877-2218/559-297-0706,all year,NA,5,NH ND VT DW NS RS,CA,W,El Portal,vault,TRUE,TRUE,FALSE,489,4.67,USW00053150,2018,9.89
-119.835,37.674,DRYG,Dry Gulch,NF,559-642-3212,all year,walk to sites only,4,NH ND VT DW NS RS,CA,NE,Mariposa,vault,TRUE,TRUE,FALSE,488,23.98,USW00053150,2018,9.54
-119.914,38.325,NIAG,Niagra Creek,NF,209-965-3434/209-533-3671,NA,NA,16,NH ND 22ft VT NW NS NR,CA,NE,Mi-Wuk,vault,FALSE,FALSE,FALSE,2024,47.48,USS0019L19S,2672,26.89
-120.323,39.011,WENT,Wentworth Springs,NF,530-644-2349/530-622-5061,mid jun-mid oct,NA,8,NH ND VT NW NS NR,CA,NE,Placerville,vault,FALSE,FALSE,FALSE,1886,51.66,USS0020L02S,2344,16.76
-120.087,38.707,KIRW,Kirkwood Lake,NF,209-295-4251/530-622-5061,mid jun-mid oct,NA,12,NH ND VT DW NS NR,CA,NE,Pioneer,vault,TRUE,FALSE,FALSE,2378,52.14,USS0019L45S,2546,8.65
-120.311,39,NORS,Northshore,NF,530-644-2349/530-622-5061,mid jun-mid oct,NA,15,NH ND VT NW NS NR,CA,NE,Pollock Pines,vault,FALSE,FALSE,FALSE,1943,35.73,USS0020L02S,2344,15.68
-119.839,37.546,JERS,Jerseydale,NF,559-877-2218/559-297-0706,NA,NA,10,NH ND 24ft VT DW NS NR N$,CA,NW,Oakhurst,vault,TRUE,FALSE,FALSE,1135,29.45,USC00048380,1538,18.58
-120.421,39.115,FRED,French Meadows,NF,530-367-2224/530-265-4531,mid may-late sep,NA,75,NH ND 30ft FTVT DW NS RS,CA,E,Foresthill,flush_and_vault,TRUE,TRUE,FALSE,1632,35.89,USS0020K30S,2447,16.22
-121.186,35.962,FORH,Fort Hunter Liggett Primitive Military,MIL,831-386-2612,NA,open to public - do not use our lat/lon - contact them for directions and info,NA,RS,CA,S,King City,NA,NA,TRUE,NA,NA,28.32,USC00044555,98,27.52
-121,39.52,CARF,Carlton Flat,NF,530-288-3231/530-265-4531,mid apr-mid oct,NA,26,NH ND 16ft VT DW NS RS,CA,W,Downieville,vault,TRUE,TRUE,FALSE,700,15.45,USC00048606,1161,10.43
-120.992,39.518,FIDD,Fiddle Creek,NF,530-288-3231/530-265-4531,mid apr-mid oct,NA,18,NH ND VT DW NS RS,CA,NE,Camptonville,vault,TRUE,TRUE,FALSE,713,8.85,USC00048606,1161,11.14
-120.981,39.513,INDV,Indian Valley,NF,530-288-3231/530-265-4531,mid apr-mid oct,NA,22,NH ND 25ft VT DW NS RS,CA,NE,Camptonville,vault,TRUE,TRUE,FALSE,723,9.01,USC00048606,1161,12.24
-121.274,39.643,FEAF,Feather Falls,NF,NA,NA,may be closed 2013 on - check,5,NH ND VT DW NS NR,CA,NE,Feather Falls,vault,TRUE,FALSE,FALSE,762,0,USC00048606,1161,16.81
-120.977,39.513,ROCR,Rocky Rest,NF,530-288-3231/530-265-4531,mid apr-mid oct,NA,10,NH ND 20ft VT DW NS RS,CA,NE,Camptonville,vault,TRUE,TRUE,FALSE,714,9.17,USC00048606,1161,12.55
-120.988,39.521,CALI,Cal Ida,NF,530-288-3231/530-265-4531,mid apr-mid oct,NA,19,NH ND VT DW NS RS,CA,NE,Camptonville,vault,TRUE,TRUE,FALSE,734,9.33,USC00048606,1161,11.31
-121.117,39.584,SLYC,Sly Creek,NA,NA,mid may-mid sep,NA,23,NH ND 40ft VT DW NS,CA,SW,La Porte,vault,TRUE,NA,FALSE,1088,15.77,USC00048606,1161,2.45
-120.417,39.132,LEWI,Lewis,NF,530-367-2224/530-265-4531,mid may-mid sep,NA,40,NH ND 30ft FTVT DW NS RS,CA,E,Foresthill,flush_and_vault,TRUE,TRUE,FALSE,1621,36.85,USS0020K30S,2447,15.02
-120.293,39.014,PLEA,Pleasant,NF,530-644-2349/530-622-5061,NA,no facilities,10,NH NT NW NR N$,CA,NA,NA,none,FALSE,FALSE,NA,1958,NA,USS0020L02S,2344,14.2
-119.795,37.752,CRAN,Crane Flat - Yosemite National Park,NP,209-372-0200,early jul-late sep,NA,166,NH FT DW NS RS PA,CA,E,Crane Flat,flush,TRUE,TRUE,FALSE,1798,0.48,USW00053150,2018,2.41
-120.054,38.706,CAPL,Caples Lake,NF,209-295-4251/530-622-5061,mid jun-mid oct,NA,34,NH ND 40ft VT DW NS NR,CA,NE,Kit Carson,vault,TRUE,FALSE,FALSE,2365,6.44,USS0019L45S,2546,5.84
-121.139,39.605,GOLT,Golden Trout Crossing,NF,530-534-6500/530-283-2050,NA,NA,5,NH VT DW NR,CA,NE,Marysville,vault,TRUE,FALSE,NA,1092,64.21,USC00048606,1161,5.37
-120.634,39.322,DONS,Donner Summit Area - Lake Spaulding,UTIL,916-386-5164,NA,NA,25,NH ND NS,CA,NE,Emigrant Gap,NA,NA,NA,FALSE,1539,3.86,USW00023225,1608,8.23
-120.634,39.322,LAKE,Lake Spaulding,CP,916-386-5164,NA,NA,25,NH ND VT DW NS,CA,W,Truckee,vault,TRUE,NA,FALSE,1537,38.79,USW00023225,1608,8.23
-120.599,39.299,LODP,Lodgepole,UTIL,916-386-5164,NA,NA,35,NH ND NS,CA,W,Cisco,NA,NA,NA,FALSE,1750,4.51,USW00023225,1608,9.89
-121.092,39.588,STRA,Strawberry,NA,NA,mid may-mid sep,NA,17,NH ND 40ft VT NW NS,CA,NA,NA,vault,FALSE,NA,FALSE,1119,NA,USC00048606,1161,3.08
-120.406,39.146,AHAR,Ahart,NF,530-367-2224/530-265-4531,NA,NA,12,NH ND 25ft VT NW NS NR,CA,E,Foresthill,vault,FALSE,FALSE,FALSE,1636,38.14,USS0020K30S,2447,13.53
-120.656,39.35,FULL,Fuller Lake,NA,NA,NA,NA,NA,NH,CA,E,Nevada City,NA,NA,NA,NA,1654,32.51,USW00023225,1608,9.31
-119.871,38.367,FENC,Fence Creek,NF,209-965-3434/209-533-3671,NA,NA,38,NH ND 22ft VT NW NS NR,CA,NE,Mi-Wuk,vault,FALSE,FALSE,FALSE,1733,53.43,USS0019L19S,2672,21.24
-119.861,38.355,BOUF,Boulder Flat,NF,209-965-3434/209-533-3671,NA,NA,20,NH ND 22ft VT DW NS NR,CA,NE,Mi-Wuk,vault,TRUE,FALSE,FALSE,1724,52.95,USS0019L19S,2672,22.29
-122.949,39.838,WELL,Wells Cabin,NF,530-934-1250/530-934-3316,mid may-mid nov,No RVs,25,NH ND VT DW NS NR N$,CA,E,Covelo,vault,TRUE,FALSE,FALSE,1933,26.07,USC00048587,244,45.25
-120.008,38.687,WOOL,Woods Lake,NF,209-295-4251/530-622-5061,mid jul-mid oct,NA,25,NH ND 16ft VT DW NS NR,CA,E,Kit Carson,vault,TRUE,FALSE,FALSE,2513,9.33,USS0019L45S,2546,1.6
-119.849,38.353,BRIG,Brightman,NF,209-965-3434/209-533-3671,NA,NA,32,NH ND 22ft VT DW NS NR,CA,NE,Mi-Wuk,vault,TRUE,FALSE,FALSE,1752,53.43,USS0019L07S,2690,22.29
-119.913,38.516,MOSL,Mosquito Lakes,NF,209-795-1381/209-533-3671,NA,NA,11,NH ND 40ft VT NW NS NR L$,CA,NE,Bear Valley,vault,FALSE,FALSE,FALSE,2461,12.39,USS0019L05S,2456,10.45
-123.084,39.825,EELR,Eel River,NF,707-983-6118/530-934-3316,mid mar-mid dec,NA,15,NH ND 21ft VT DW NS NR L$,CA,E,Covelo,vault,TRUE,FALSE,FALSE,462,14.48,USC00047109,310,51.56
-119.895,37.123,HIDV,Hidden View,COE,559-673-5151,all year,NA,55,E DP FT DW SH RS PA,CA,NE,Madera,flush,TRUE,TRUE,TRUE,NA,23.34,USC00043261,125,21.79
-121.011,35.981,WIHI,Williams Hill Rec Area,BLM,831-630-5000,NA,new - shade over tables - some trees,NA,NH ND VT NW NS NR,CA,NW,San Miguel,vault,FALSE,FALSE,FALSE,690,37.98,USC00044555,98,27.54
-119.902,38.517,PACI,Pacific Valley,NF,209-795-1381/209-533-3671,NA,NA,15,NH ND VT NW NS NR,CA,NE,Bear Valley,vault,FALSE,FALSE,FALSE,2315,13.36,USS0019L19S,2672,9.62
-119.832,38.342,DARD,Dardanelle,NF,209-965-3434/209-533-3671,NA,NA,28,NH ND 28ft VT DW NS NR,CA,NE,Dardanelle,vault,TRUE,FALSE,FALSE,1763,0.16,USS0019L07S,2690,20.6
-120.91,39.54,RAMS,Ramshorn,NF,530-288-3231/530-265-4531,mid apr-mid oct,NA,16,NH ND 20ft VT NW NS RS,CA,W,Downieville,vault,FALSE,TRUE,FALSE,852,7.4,USC00042500,888,7.84
-120.57,39.329,INDS,Indian Springs,NF,530-288-3231/530-265-4531,mid may-mid sep,NA,34,NH ND 25ft VT NW NS RS,CA,E,Emigrant Gap,vault,FALSE,TRUE,FALSE,1679,9.01,USW00023225,1608,13.38
-119.955,38.639,UBLK,Upper Blue Lake,UTIL,NA,NA,NA,32,NH ND VT DW NS,CA,W,Markleeville,vault,TRUE,NA,FALSE,2499,16.42,USS0019L05S,2456,4.43
-122.776,39.885,SUGA,Sugarfoot,NF,530-934-1250/530-934-3316,mid may-mid nov,dispersed,5,NH ND VT NW NS NR N$,CA,SW,Red Bluff,vault,FALSE,FALSE,FALSE,1155,56.33,USC00048587,244,39.13
-119.737,37.752,TAMA,Tamarack Flat - Yosemite National Park,NP,209-372-0200,NA,RVs not recommended,63,NH 16ft VT NW NR,CA,NA,NA,vault,FALSE,FALSE,NA,1904,NA,USW00053150,2018,7.43
-121.269,39.707,MLSP,Milsap Bar,NF,530-534-6500/530-283-2050,mid apr-mid oct,NA,20,NH ND 16ft VT NW NS NR N$,CA,E,Brush Creek,vault,FALSE,FALSE,FALSE,515,6.28,USC00048606,1161,21.14
-119.937,38.627,MIDD,Middle Creek/Expansion,CP,NA,NA,NA,35,NH ND NS,CA,NE,Jackson,NA,NA,NA,FALSE,2499,79.18,USS0019L05S,2456,2.4
-119.938,38.63,UBLD,Upper Blue Lake Dam,UTIL,NA,NA,NA,25,NH ND VT DW NS,CA,SW,Markleeville,vault,TRUE,NA,FALSE,2497,15.45,USS0019L05S,2456,2.72
-120.573,36.232,LOSG,Los Gatos Creek Park,CP,559-488-3004,NA,NA,44,NH ND NS,CA,NW,Coalinga,NA,NA,NA,FALSE,511,21.73,USC00041864,204,21.9
-120.52,39.307,BIGB,Big Bend - Soda Springs,NA,NA,NA,NA,NA,NA,CA,W,Soda Springs,NA,NA,NA,NA,1771,12.23,USS0020K31S,2089,13.19
-119.924,38.612,LWBL,Lower Blue Lake,UTIL,NA,NA,NA,16,NH ND 30ft VT DW NS,CA,S,Tahoe City,vault,TRUE,NA,FALSE,2481,64.86,USS0019L05S,2456,0.41
-120.373,39.188,TALB,Talbot,NF,530-367-2224/530-265-4531,NA,NA,12,VT NW NR,CA,SW,Truckee,vault,FALSE,FALSE,NA,1714,22.53,USS0020K30S,2447,9.77
-120.64,39.401,CARR,Carr Lake,NF,530-288-3231/530-265-4531,NA,NA,12,NH ND NS NR,CA,NE,Nevada City,NA,NA,FALSE,FALSE,2040,35.89,USC00041018,1641,6.02
-119.884,38.543,HERM,Hermit Valley,NF,209-795-1381/209-533-3671,NA,NA,25,NH ND 50ft VT NW NS NR,CA,NE,Bear Valley,vault,FALSE,FALSE,FALSE,2196,16.09,USS0019L19S,2672,7.36
-119.803,38.34,PIGF,Pigeon Flat,NF,209-965-3434/209-533-3671,NA,NA,7,NH ND VT NW NS NR L$,CA,W,Bridgeport,vault,FALSE,FALSE,FALSE,1824,50.69,USS0019L07S,2690,18.06
-122.767,39.903,KING,Kingsley Glade,NF,530-934-1250/530-934-3316,mid may-mid nov,NA,6,NH ND VT NW NS NR N$,CA,W,Paskenta,vault,FALSE,FALSE,FALSE,1376,18.83,USC00048587,244,40.45
-119.88,38.543,GROF,Grouse Flat,NF,209-795-1381/209-533-3671,NA,NA,10,NR,CA,NE,Bear Valley,NA,NA,FALSE,NA,2215,16.42,USS0019L19S,2672,7.02
-122.992,39.878,HOWA,Howard Meadows/Lake,NF,707-983-6118/530-934-3316,NA,2 campgrounds,12,NH ND VT NW NS NR,CA,NE,Covelo,vault,FALSE,FALSE,FALSE,1198,23.82,USC00048587,244,50.9
-120.609,39.389,GROU,Grouse Ridge,NF,530-288-3231/530-265-4531,NA,NA,9,NH ND VT NW NS NR N$,CA,E,Nevada City,vault,FALSE,FALSE,FALSE,2275,37.82,USC00041018,1641,8.25
-120.643,39.413,LIND,Lindsey Lake,NF,530-288-3231/530-265-4531,NA,NA,10,NH ND NS NR,CA,NE,Nevada City,NA,NA,FALSE,FALSE,1921,36.21,USC00041018,1641,4.67
-120.497,39.311,HAMP,Hampshire Rocks,NF,530-288-3231/530-265-4531,mid may-late sep,NA,30,NH ND 30ft VT DW NS RS,CA,W,Soda Springs,vault,TRUE,TRUE,FALSE,1812,10.14,USS0020K31S,2089,11.15
-119.79,38.34,EURE,Eureka Valley,NF,209-965-3434/209-533-3671,NA,NA,28,NH ND 22ft VT DW NS NR,CA,E,Dardanelle,vault,TRUE,FALSE,FALSE,1853,3.86,USS0019L07S,2690,16.94
-122.685,39.92,WHIL,Whitlock,NF,530-934-1250/530-934-3316,mid may-mid nov,NA,5,NH ND VT DW NS NR N$,CA,W,Paskenta,vault,TRUE,FALSE,FALSE,1311,12.55,USC00048587,244,39.26
-120.518,39.333,WOOD,Woodchuck,NF,530-288-3231/530-265-4531,NA,NA,8,NH ND VT NW NS NR,CA,NA,NA,vault,FALSE,FALSE,FALSE,1920,NA,USS0020K31S,2089,12.77
-122.092,39.918,WOOB,Woodson Bridge State Rec Area,SRA,530-839-2112,mid may-late dec,NA,41,WES ND 31ft FT DW SH RS,CA,E,Corning,flush,TRUE,TRUE,TRUE,NA,7.56,USC00046506,77,21.23
-119.8,38.396,CLAF,Clark Fork,NF,209-965-3434/209-533-3671,NA,NA,88,NH DP 40ft FTVT DW SH NR,CA,NE,Mi-Wuk,flush_and_vault,TRUE,FALSE,TRUE,1881,59.87,USS0019L19S,2672,17.09
-122.79,39.921,THRE,Three Prong,NF,530-934-1250/530-934-3316,mid may-mid dec,NA,6,NH ND VT NW NS NR N$,CA,W,Paskenta,vault,FALSE,FALSE,FALSE,1838,21.24,USC00048587,244,43.16
-122.986,39.895,LITD,Little Doe,NF,707-983-6118/530-934-3316,mid apr-mid nov,NA,13,NH ND VT NW NS NR L$,CA,NE,Covelo,vault,FALSE,FALSE,FALSE,1136,25.11,USC00048587,244,51.73
-120.099,38.945,BAYV,Bayview,NF,530-543-2600/530-543-2600,NA,NA,13,NH ND 23ft VT DW NS NR,CA,W,South Lake Tahoe,vault,TRUE,FALSE,FALSE,2101,10.62,USS0020L10S,1901,4.56
-119.788,38.404,SAN1,Sand Flat,NF,209-795-1381/209-533-3671,NA,NA,68,NH ND 40ft VT DW NS NR,CA,SE,Kyburz,vault,TRUE,FALSE,FALSE,1887,60.51,USS0019L19S,2672,16.24
-121.312,39.768,ROGE,Rogers Cow Camp (Family ),NF,530-534-6500/530-283-2050,mid may-mid sep,NA,6,NH ND VT NW NS NR,CA,NE,Berry Creek,vault,FALSE,FALSE,FALSE,1267,15.77,USC00046685,533,26.8
-119.752,38.324,BAKE,Baker,NF,209-965-3434/209-533-3671,NA,NA,44,NH ND 22ft VT DW NS NR,CA,NE,Mi-Wuk,vault,TRUE,FALSE,FALSE,1926,56.97,USS0019L38S,2931,13.35
-119.748,38.317,DEAD,Deadman,NF,209-965-3434/209-533-3671,NA,NA,15,NH ND 28ft VT NW NS NR N$,CA,NE,Mi-Wuk,vault,FALSE,FALSE,FALSE,1925,56.81,USS0019L38S,2931,12.75
-120.085,38.952,EMEB,Emerald Bay State Park,SP,530-541-3030,mid may-late dec,As of 2013 - may be CLOSED - check,100,NH FT DW SH RS,CA,W,South Lake Tahoe,flush,TRUE,TRUE,TRUE,2013,9.33,USS0020L10S,1901,3.9
-119.807,38.489,HIGL,Highland Lakes,NF,209-795-1381/209-533-3671,NA,NA,35,NH ND VT NW NS NR L$,CA,NE,Arnold,vault,FALSE,FALSE,FALSE,2632,54.07,USS0019L19S,2672,6.8
-119.929,38.73,HOPE,Hope Valley,NF,775-882-2766/775-331-6444,mid jul-late aug,NA,24,NH ND 22ft VT DW NS RS,CA,SW,Woodfords,vault,TRUE,TRUE,FALSE,2189,10.62,USS0019L41S,2478,3.57
-119.693,37.508,SUMC,Summit Camp,NF,559-877-2218/559-297-0706,NA,NA,10,VT NW NR,CA,N,Oakhurst,vault,FALSE,FALSE,NA,1706,20.44,USC00048380,1538,5.32
-120.646,39.459,MCMU,McMurray,NF,NA,NA,NA,NA,NR,CA,NE,Nevada City,NA,NA,FALSE,NA,1799,38.62,USC00041018,1641,1
-120.102,38.977,DLBL,D.L. Bliss State Park,SP,530-525-7277,mid may-late dec,NA,170,NH DP FT DW SH RS,CA,N,Emerald Bay,flush,TRUE,TRUE,TRUE,1919,1.77,USS0020L02S,2344,3.52
-120.493,39.353,STER,Sterling Lake,NF,530-288-3231/530-265-4531,NA,NA,8,NH ND NS NR,CA,NA,NA,NA,NA,FALSE,FALSE,2138,NA,USS0020K31S,2089,10.91
-120.493,39.353,STER,Sterling lake- dispersed,CP,NA,early jul-late oct,NA,NA,NH ND NS L$,CA,NA,NA,NA,NA,NA,FALSE,2145,NA,USS0020K31S,2089,10.91
-120.065,38.934,CAMP,Camp Shelley,CP,NA,NA,NA,NA,NH ND 24ft FT DW SH RS,CA,W,South Lake Tah,flush,TRUE,TRUE,TRUE,1910,7.56,USS0020L10S,1901,1.37
-119.824,38.538,BLO1,Bloomfield I,NF,209-795-1381/209-533-3671,NA,NA,20,NH ND VT DW SH NR,CA,NE,Arnold,vault,TRUE,FALSE,TRUE,2403,55.68,USS0019L19S,2672,2.48
-123.791,39.68,WESS,Westport State Beach,SB,707-937-5804,NA,NA,46,NH ND DW NS NR,CA,N,Westport,NA,TRUE,FALSE,FALSE,NA,4.99,USC00043161,38,19.19
-119.679,37.547,WAWO,Wawona  - Yosemite National Park,NP,877-444-6777,mid apr-late dec,NA,93,NH DP 35ft FT DW NS RS PA,CA,NW,Wawona,flush,TRUE,TRUE,FALSE,1201,2.25,USC00048380,1538,5.6
-120.146,39.041,SUGS,Sugar Pine Point State Park,SP,530-525-7982,mid may-late dec,NA,175,NH DP 32ft FT DW SH RS,CA,SW,Tahoma,flush,TRUE,TRUE,TRUE,1981,3.38,USC00048760,1925,2.56
-120.051,38.926,FALF,Fallen Leaf,NF,530-543-2600/530-543-2600,mid may-mid oct,NA,206,E ND 40ft FT DW SH RS PA,CA,W,South Lake Tahoe,flush,TRUE,TRUE,TRUE,1952,6.6,USS0020L10S,1901,0.45
-119.811,38.524,BLO2,Bloomfield 2,NF,209-795-1381/209-533-3671,NA,NA,20,NH ND VT DW SH NR L$,CA,NE,Arnold,vault,TRUE,FALSE,TRUE,2438,55.68,USS0019L19S,2672,3.04
-119.647,37.873,WHIW,White Wolf - Yosemite National Park,NP,209-372-0200,NA,NA,74,NH ND 27ft FT DW NS NR,CA,W,Lee Vining,flush,TRUE,FALSE,FALSE,2414,47.15,USC00049855,1225,14.55
-120.58,39.438,CANY,Canyon Creek,NF,530-288-3231/530-265-4531,NA,NA,20,NH VT NW NR,CA,NA,NA,vault,FALSE,FALSE,NA,1832,NA,USC00041018,1641,6.74
-120.043,38.936,CAMR,Camp Richardson Complex,NF,530-543-2600/530-543-2600,NA,4 campgrounds,320,NH ND NS NR,CA,W,South Lake Tahoe,NA,NA,FALSE,FALSE,1905,5.79,USS0020L10S,1901,0.9
-121.26,39.782,LITN,Little North Fork,NF,530-534-6500/530-283-2050,NA,NA,6,NH ND 16ft VT NW NS NR N$,CA,NE,Berry Creek,vault,FALSE,FALSE,FALSE,1158,19.47,USC00048606,1161,27.59
-120.123,39.035,MEEK,Meeks Bay,NF,530-543-2600/530-543-2600,mid may-mid oct,NA,40,NH ND 20ft FT DW NS RS,CA,NE,Meeks Bay,flush,TRUE,TRUE,FALSE,1914,0.16,USC00048760,1925,2.83
-120.601,39.458,JACK,Jackson Creek,NF,530-288-3231/530-265-4531,NA,NA,14,NH ND NS NR N$,CA,NA,NA,NA,NA,FALSE,FALSE,1731,NA,USC00041018,1641,4.72
-120.991,35.881,NOSS,North Shore San Antonio,CP,831-755-4895,NA,NA,271,FT DW,CA,W,Bradley,flush,TRUE,NA,NA,NA,17.22,USC00043882,465,27.09
-122.991,39.95,HAMM,Hammerhorn Lake,NF,707-983-6118/530-934-3316,mid may-mid dec,NA,9,NH ND VT DW NS NR L$,CA,NE,Willits,vault,TRUE,FALSE,FALSE,1103,67.75,USC00048587,244,56.25
-120.501,39.408,MEAL,Meadow Lake,NF,530-994-3401/530-265-4531,NA,NA,25,NH ND VT NW NS NR,CA,W,Truckee,vault,FALSE,FALSE,FALSE,2231,28.65,USS0020K31S,2089,14.23
-120.744,39.567,UNIO,Union Flat,NF,530-288-3231/530-265-4531,mid apr-mid oct,NA,11,NH ND 40ft VT DW NS RS,CA,E,Downieville,vault,TRUE,TRUE,FALSE,1061,7.24,USC00042500,888,6.88
-119.624,37.663,BRIV,Bridalveil Creek - Yosemite National Park,NP,209-372-0200,NA,NA,110,NH 35ft FT DW NR,CA,NA,NA,flush,TRUE,FALSE,NA,2144,NA,USC00049855,1225,10.12
-120.159,39.114,KASP,Kaspian,NF,530-543-2600/530-543-2600,mid may-mid oct,NA,9,NH ND 20ft FT DW NS RS,CA,NW,South Lake Tahoe,flush,TRUE,TRUE,FALSE,1925,24.94,USS0020K25S,2028,6.01
-119.896,38.776,KITC,Kit Carson,NF,775-882-2766/775-331-6444,NA,NA,12,NH ND 22ft VT DW NS NR,CA,NW,Markleeville,vault,TRUE,FALSE,FALSE,2101,13.68,USS0019L41S,2478,6.24
-119.786,38.588,SIL1,Silver Creek-Hwy 4,NF,775-882-2766/775-331-6444,mid jun-late aug,NA,26,NH ND 22ft VT DW NS RS,CA,S,Markleeville,vault,TRUE,TRUE,FALSE,2092,11.75,USS0019L19S,2672,4.39
-119.634,37.492,SUMD,Summerdale,NF,559-877-2218/559-297-0706,mid may-late sep,NA,30,NH ND 40ft VT DW NS RS,CA,N,Oakhurst,vault,TRUE,TRUE,FALSE,1518,18.35,USC00048380,1538,2.24
-119.838,38.7,GROV,Grover Hot Springs State Park,SP,530-694-2248,mid may-late dec,NA,76,NH ND 27ft FT DW SH RS,CA,W,Markleeville,flush,TRUE,TRUE,TRUE,1811,5.15,USS0019L39S,1864,3.68
-120.158,39.139,WILK,William Kent,NF,530-543-2600/530-543-2600,mid may-mid oct,NA,95,NH DP 24ft FT DW NS RS,CA,S,Tahoe City,flush,TRUE,TRUE,FALSE,1928,3.54,USC00048758,1899,3.46
-119.595,37.828,YOSE,Yosemite Creek - Yosemite National Park,NP,209-372-0200,NA,No RVs,75,NH VT NW NR,CA,NA,NA,vault,FALSE,FALSE,NA,2210,NA,USC00049855,1225,8.67
-121.01,39.73,BLAT,Black Rock Tent(Family ),NF,530-534-6500/530-283-2050,mid may-mid oct,NA,20,NH DP 22ft VT DW NS NR,CA,NW,La Porte,vault,TRUE,FALSE,FALSE,1557,5.79,USC00048606,1161,20.34
-119.975,38.942,CAML,Campground by the Lake,CP,530--542-6096,NA,NA,170,E DP 40ft FT DW SH,CA,NA,South Lake Tahoe,flush,TRUE,NA,TRUE,1922,NA,USW00093230,1924,5.14
-120.98,39.724,PENI,Peninsula Tent (Family ),NF,530-534-6500/530-283-2050,mid may-mid oct,Tent Only,25,NH ND FT DW NS NR,CA,N,La Porte,flush,TRUE,FALSE,FALSE,1553,4.67,USC00048606,1161,20.96
-119.975,38.944,ELDO,El Dorado,CP,NA,NA,NA,NA,NA,CA,NE,South Lake Tahoe,NA,NA,NA,NA,1904,0.48,USW00093230,1924,5.35
-120.986,39.727,WYAN,Wyandotte,NF,530-534-6500/530-283-2050,mid may-mid oct,NA,28,NH ND 22ft FT DW NS NR,CA,N,La Porte,flush,TRUE,FALSE,FALSE,1571,4.99,USC00048606,1161,20.99
-120.553,39.486,FIND,Findley,NF,530-994-3401/530-265-4531,mid jun-mid oct,NA,15,NH DP 30ft FT DW NS RS,CA,SW,Sierraville,flush,TRUE,TRUE,FALSE,1894,19.79,USC00041018,1641,9.52
-120.551,39.486,FIRT,Fir Top,NF,530-994-3401/530-265-4531,mid jun-mid oct,NA,12,NH DP 30ft FT DW NS RS,CA,SW,Sierraville,flush,TRUE,TRUE,FALSE,1866,19.47,USC00041018,1641,9.68
-120.98,39.726,TOOM,Tooms RV,NF,NA,NA,open RV parking area - unknown facilities,NA,NH ND NS NR,CA,N,La Porte,NA,NA,FALSE,FALSE,NA,4.83,USC00048606,1161,21.15
-120.548,39.485,WOOC,Woodcamp,NF,530-994-3401/530-265-4531,mid jun-mid oct,NA,20,NH ND 34ft FTVT DW NS RS,CA,SW,Sierraville,flush_and_vault,TRUE,TRUE,FALSE,1880,19.31,USC00041018,1641,9.88
-119.845,38.764,CRYS,Crystal Springs,NF,775-882-2766/775-331-6444,NA,NA,25,NH ND 22ft VT DW NS NR,CA,NW,Bridgeport,vault,TRUE,FALSE,FALSE,1871,77.73,USS0019L41S,2478,6.26
-119.575,37.743,UPPV,Upper River - Yosemite National Park,NP,209-372-0200,NA,NA,NA,NR,CA,NA,NA,NA,NA,FALSE,NA,1241,NA,USC00049855,1225,1.51
-120.66,39.565,LOGA,Loganville,NF,530-288-3231/530-265-4531,mid apr-mid oct,NA,19,NH ND VT DW NS RS,CA,W,Sierra City,vault,TRUE,TRUE,FALSE,1241,2.25,USC00041018,1641,12.34
-119.571,37.742,LOWE,Lower Pines - Yosemite National Park,NP,209-372-0200,early apr-late oct,NA,60,NH 35ft FT DW NS RS PA,CA,E,Yosemite Village,flush,TRUE,TRUE,FALSE,1247,2.09,USC00049855,1225,1.87
-120.97,39.731,LITB,Little Beaver,NF,530-534-6500/530-283-2050,NA,NA,120,NH ND 40ft FT DW NS NR,CA,N,La Porte,flush,TRUE,FALSE,FALSE,1560,5.63,USC00048606,1161,22.08
-119.566,37.809,PORC,Porcupine Flat - Yosemite National Park,NP,209-372-0200,NA,NA,52,NH 35ft VT NW NR,CA,NA,NA,vault,FALSE,FALSE,NA,2483,NA,USC00049855,1225,6.87
-119.567,37.742,NORP,North Pines - Yosemite National Park,NP,209-372-0200,mid apr-late sep,NA,81,NH ND 35ft FT DW NS RS PA,CA,E,Yosemite Village,flush,TRUE,TRUE,FALSE,1235,2.25,USC00049855,1225,2.19
-120.971,39.735,REDF,Red Feather,NF,530-534-6500/530-283-2050,mid jun-late aug,NA,60,NH DP 22ft VT DW NS RS PA,CA,N,La Porte,vault,TRUE,TRUE,FALSE,1544,5.95,USC00048606,1161,22.41
-120.201,39.223,SIL2,Silver Creek-Truckee,NF,530-587-3558/530-265-4531,mid may-late sep,NA,27,NH ND 25ft VT DW NS RS,CA,NW,Tahoe City,vault,TRUE,TRUE,FALSE,1847,7.72,USS0020K30S,2447,6.28
-119.563,37.735,UPPN,Upper Pines - Yosemite National Park,NP,209-372-0200,mid mar-late dec,NA,238,NH DP 35ft FT DW NS RS PA,CA,SE,Yosemite Village,flush,TRUE,TRUE,FALSE,1239,2.9,USC00049855,1225,2.88
-120.967,39.738,RUNN,Running Deer,NF,530-534-6500/530-283-2050,mid jun-late aug,NA,40,NH DP 40ft FT DW NS RS PA,CA,N,La Porte,flush,TRUE,TRUE,FALSE,1594,6.28,USC00047195,1042,22.13
-119.804,38.722,TURT,Turtle Rock Park,CP,NA,NA,NA,28,NH ND 34ft VT DW SH L$,CA,SE,Turtle Rock Park,vault,TRUE,NA,TRUE,1861,0,USS0019L39S,1864,5.94
-120.532,39.501,EASM,East Meadow,NF,530-994-3401/530-265-4531,early jun-late aug,NA,46,NH DP 30ft FT DW NS RS PA,CA,NW,Truckee,flush,TRUE,TRUE,FALSE,1885,35.57,USC00041018,1641,11.85
-120.514,39.49,LITL,Little Lasier Meadow,NF,530-994-3401/530-265-4531,early jun-mid oct,NA,12,NH DP NS RS,CA,SW,Sierraville,NA,NA,TRUE,FALSE,1989,16.9,USC00041018,1641,12.83
-120.534,39.506,PASS,Pass Creek,NF,530-994-3401/530-265-4531,early jun-mid oct,NA,30,NH DP 22ft FTVT DW NS RS,CA,NW,Truckee,flush_and_vault,TRUE,TRUE,FALSE,1887,36.05,USC00041018,1641,11.95
-120.135,39.175,TAHO,Tahoe State Rec Area,SRA,530-583-3074,mid may-late dec,NA,27,NH ND 21ft FT DW SH RS,CA,NE,Tahoe City,flush,TRUE,TRUE,TRUE,1911,1.13,USC00048758,1899,1.05
-119.582,37.468,BIGY,Big Sandy,NF,559-877-2218/559-297-0706,NA,NA,23,NH ND 16ft VT NW NS NR,CA,N,Oakhurst,vault,FALSE,FALSE,FALSE,1802,16.58,USC00048380,1538,6.67
-119.776,38.698,MARK,Markleeville,NF,775-882-2766/775-331-6444,NA,NA,10,NH ND 20ft VT DW NS NR,CA,NE,Markleeville,vault,TRUE,FALSE,FALSE,1700,0.48,USS0019L39S,1864,4.93
-119.584,37.432,NELD,Nelder Grove,NF,559-877-2218/559-297-0706,NA,NA,10,NH ND 22ft VT NW NS NR N$,CA,N,Fresno,vault,FALSE,FALSE,FALSE,1645,78.05,USC00048380,1538,9.9
-120.209,39.259,GOSM,Goose Meadow,NF,530-587-3558/530-265-4531,mid may-late sep,NA,24,NH ND 25ft VT DW NS RS,CA,S,Truckee,vault,TRUE,TRUE,FALSE,1824,7.89,USS0020K13S,1984,5.19
-119.953,38.981,NEVA,Nevada Beach,NF,530-543-2600/530-543-2600,early may-mid oct,NA,54,NH ND 24ft FTVT DW NS RS,NV,NW,Stateline,flush_and_vault,TRUE,TRUE,FALSE,1906,2.41,USC00262119,2235,5.35
-119.733,36.975,LOSL,Lost Lake,CP,559-488-3004,NA,NA,42,36ft FT DW,CA,N,Fresno,flush,TRUE,NA,NA,NA,25.59,USC00043261,125,3.34
-120.601,39.566,WILP,Wild Plum,NF,530-288-3231/530-265-4531,early jun-mid oct,NA,49,NH ND 25ft VT DW NS RS,CA,E,Sierra City,vault,TRUE,TRUE,FALSE,1357,2.74,USC00041018,1641,13.3
-120.119,39.184,LAKF,Lake Forest,CP,NA,NA,NA,20,NH ND NS NR,CA,NW,South Lake Tahoe,NA,NA,FALSE,FALSE,1905,29.77,USC00048758,1899,2.73
-119.783,38.744,INDR,Indian Creek,BLM,NA,NA,hot showers,NA,NH DP 30ft FTVT DW SH NR,CA,N,Markleeville,flush_and_vault,TRUE,FALSE,TRUE,1726,5.63,USS0019L39S,1864,8.82
-119.784,38.746,INDI,Indian Creek,BLM,775-885-6107,NA,NA,20,NH DP FT DW SH NR,NV,SE,Woodfords,flush,TRUE,FALSE,TRUE,1716,4.83,USS0019L39S,1864,9
-119.697,38.578,WOLF,Wolf Creek,NF,530-644-2349/530-622-5061,early jun-late aug,NA,45,NH ND 35ft VT DW NS RS,CA,E,Pollock Pines,vault,TRUE,TRUE,FALSE,1503,79.82,USS0019L19S,2672,9.5
-120.935,35.814,SOUA,South Shore San Antonio,CP,NA,NA,3 campgrounds,NA,E DP FT DW SH,CA,NW,Paso Robles,flush,TRUE,NA,TRUE,NA,31.7,USC00043882,465,25.55
-119.72,38.632,CENT,Centerville Flat,NF,775-882-2766/775-331-6444,NA,NA,20,NH ND NS NR N$,CA,NA,NA,NA,NA,FALSE,FALSE,1790,NA,USS0019L39S,1864,9.67
-121.207,39.867,GRIF,Grizzly Creek,NF,530-283-0555/530-283-2050,mid apr-mid oct,NA,8,NH ND 35ft VT DW NS NR,CA,W,Quincy,vault,TRUE,FALSE,FALSE,1624,23.5,USC00047195,1042,23.5
-119.565,37.399,GREY,Greys Mountain,NF,559-877-2218/559-297-0706,NA,NA,27,NH ND 22ft VT NW NS NR,CA,NE,Oakhurst,vault,FALSE,FALSE,FALSE,1629,10.78,USC00048380,1538,13.93
-119.561,37.404,SOQU,Soquel,NF,559-877-2218/559-297-0706,mid may-late sep,NA,14,NH ND 27ft VT NW NS RS,CA,NE,Oakhurst,vault,FALSE,TRUE,FALSE,1623,11.43,USC00048380,1538,13.6
-119.548,37.456,FRES,Fresno Dome,NF,559-877-2218/559-297-0706,NA,NA,17,NH ND VT NW NS NR,CA,NE,Oakhurst,vault,FALSE,FALSE,FALSE,1994,16.74,USC00048380,1538,9.78
-120.241,39.322,DONN,Donner Memorial State Park,SP,530-582-7892,mid may-late dec,NA,54,NH ND 28ft FT DW SH RS,CA,W,Truckee,flush,TRUE,TRUE,TRUE,1820,4.99,USS0020K13S,1984,5.8
-119.682,37.025,MILT,Millerton Lake State Rec Area,SRA,559-822-2332,all year,NA,148,NH DP 36ft FT DW SH RS,CA,NE,Friant,flush,TRUE,TRUE,TRUE,NA,4.99,USC00043261,125,3.84
-121.174,39.868,HASK,Haskins Valley,CP,NA,NA,NA,38,NH ND FT DW NS NR,CA,NA,NA,flush,TRUE,FALSE,FALSE,1583,NA,USC00047195,1042,20.82
-119.544,37.441,KELT,Kelty Meadow,NF,559-877-2218/559-297-0706,mid may-late sep,NA,14,NH ND VT NW NS RS,CA,NE,Oakhurst,vault,FALSE,TRUE,FALSE,1801,15.61,USC00048380,1538,11.16
-120.648,39.624,PACK,Packsaddle,NF,530-288-3231/530-265-4531,early jun-mid oct,NA,24,NH ND 30ft VT DW NS RS,CA,N,Sierra City,vault,TRUE,TRUE,FALSE,1870,6.44,USC00042500,888,16.54
-120.204,39.3,GRAT,Granite Flat,NF,530-587-3558/530-265-4531,mid may-late sep,NA,75,NH ND 35ft VT DW NS RS,CA,SW,Truckee,vault,TRUE,TRUE,FALSE,1791,3.54,USS0020K13S,1984,2.07
-119.569,37.315,FORS,Forks,NF,559-877-2218/559-297-0706,mid apr-mid sep,NA,29,NH DP 31ft FT DW NS NR,CA,E,Oakhurst,flush,TRUE,FALSE,FALSE,1075,7.24,USC00046252,806,10.53
-120.643,39.628,BERG,Berger Creek,NF,530-288-3231/530-265-4531,early jun-mid oct,NA,9,NH 16ft VT NW RS,CA,NA,NA,vault,FALSE,TRUE,NA,1834,NA,USC00042500,888,17.12
-120.638,39.631,DIAB,Diablo,NF,530-288-3231/530-265-4531,early jun-mid oct,NA,18,NH ND 40ft VT NW NS RS,CA,NA,NA,vault,FALSE,TRUE,FALSE,1803,NA,USC00042500,888,17.65
-120.615,39.62,SARD,Sardine,NF,530-288-3231/530-265-4531,early jun-mid oct,NA,27,NH ND 28ft VT DW NS RS,CA,N,Sierra City,vault,TRUE,TRUE,FALSE,1753,6.12,USC00041018,1641,18.77
-121.215,39.902,LOWB,Lower Bucks,NF,530-283-0555/530-283-2050,NA,NA,7,NH ND 26ft VT NW NS NR,CA,W,Quincy,vault,FALSE,FALSE,FALSE,1548,23.17,USC00047195,1042,23.19
-119.539,37.37,CHIL,Chilkoot,NF,559-877-2218/559-297-0706,mid may-late sep,NA,14,NH ND 33ft VT NW NS RS,CA,NE,Oakhurst,vault,FALSE,TRUE,FALSE,1458,10.78,USC00046252,806,15.45
-121.202,39.901,SUND,Sundew,NF,530-283-0555/530-283-2050,NA,NA,19,NH ND 22ft VT DW NS NR,CA,W,Quincy,vault,TRUE,FALSE,FALSE,1615,22.05,USC00047195,1042,22.12
-120.614,39.626,SALM,Salmon Creek,NF,530-288-3231/530-265-4531,early jun-mid oct,NA,32,NH ND 25ft VT DW NS RS,CA,N,Sierra City,vault,TRUE,TRUE,FALSE,1779,6.92,USC00042500,888,19.33
-119.552,38.333,LEAM,Leavitt Meadows,NF,760-932-7070/775-331-6444,NA,NA,18,NH ND 40ft VT DW NS NR,CA,S,Walker,vault,TRUE,FALSE,FALSE,2269,21.24,USS0019L08S,2194,3.67
-119.544,37.308,LUPN,Lupine/Cedar Bluff,NF,559-877-2218/559-297-0706,NA,NA,113,NH DP 36ft FT DW NS NR,CA,E,Oakhurst,flush,TRUE,FALSE,FALSE,1051,9.5,USC00046252,806,8.88
-121.142,39.889,WHIH,Whitehorse,NF,530-283-0555/530-283-2050,NA,NA,20,NH ND 43ft VT DW NS NR,CA,W,Quincy,vault,TRUE,FALSE,FALSE,1614,17.54,USC00047195,1042,17.45
-119.542,37.302,SPRC,Spring Cove,NF,559-877-2218/559-297-0706,mid may-mid sep,NA,65,NH DP 30ft FT DW NS RS,CA,E,Oakhurst,flush,TRUE,TRUE,FALSE,1064,9.98,USC00046252,806,8.2
-123.728,39.878,STAH,Standish - Hickey State Rec Area,SRA,707-925-6482,mid may-late dec,NA,162,NH ND 27ft FT DW SH RS,CA,NW,Leggett,flush,TRUE,TRUE,TRUE,NA,1.77,USC00043161,38,41.02
-123.844,39.837,USAL,Usal Beach - Sinkyone Wilderness State Park,SP,707-986-7711,all year,NA,NA,NH ND VT NW NS NR,CA,S,Whitethorn,vault,FALSE,FALSE,FALSE,NA,22.37,USC00043161,38,37.16
-119.535,37.297,WISP,Wishon Point,NF,559-877-2218/559-297-0706,early may-mid sep,NA,47,NH DP 33ft FT DW NS RS,CA,E,Oakhurst,flush,TRUE,TRUE,FALSE,1057,10.62,USC00046252,806,7.47
-121.188,39.914,MILK,Mill Creek,NF,530-283-0555/530-283-2050,NA,NA,9,NH ND 58ft VT DW NS NR,CA,W,Quincy,vault,TRUE,FALSE,FALSE,1622,20.76,USC00047195,1042,20.71
-120.626,39.668,SNAG,Snag Lake,NF,530-288-3231/530-265-4531,NA,NA,14,NH 16ft VT NW NR,CA,W,Calpine,vault,FALSE,FALSE,NA,2034,15.93,USC00047085,1478,20.17
-120.558,39.631,SIER,Sierra,NF,530-288-3231/530-265-4531,early jun-mid oct,NA,16,NH ND 22ft VT NW NS RS,CA,NE,Sierra City,vault,FALSE,TRUE,FALSE,1752,9.66,USC00048218,1516,16.94
-120.885,35.759,LKNA,Lake Nacimiento,CP,831-755-4899,all year,8 campgrounds,337,WES DP FT DW SH RS,CA,NW,Paso Robles,flush,TRUE,TRUE,TRUE,NA,24.46,USC00046730,222,23.19
-120.288,39.451,SPPC,Independence Lake,UTIL,NA,NA,NA,20,NH ND VT DW NS NR,CA,NW,Truckee,vault,TRUE,FALSE,FALSE,2117,16.42,USS0020K04S,2134,0.2
-120.661,39.701,LAKB,Lakes Basin Family .,NF,530-836-2575/530-283-2050,mid may-late aug,NA,25,NH ND VT DW NS RS,CA,SW,Graeagle,vault,TRUE,TRUE,FALSE,1936,8.21,USC00047085,1478,19.92
-120.543,39.631,CHAP,Chapman Creek,NF,530-288-3231/530-265-4531,early jun-mid oct,NA,27,NH ND 25ft VT DW NS RS,CA,NE,Sierra City,vault,TRUE,TRUE,FALSE,1806,10.62,USC00048218,1516,15.72
-119.496,37.332,WHIS,Whiskers,NF,559-877-2218/559-297-0706,NA,NA,8,NH ND 20ft VT NW NS NR,CA,E,Oakhurst,vault,FALSE,FALSE,FALSE,1631,13.52,USC00046252,806,11.08
-121.508,40.034,WESR,West Branch,NF,NA,NA,NA,15,20ft VT DW NR,CA,N,Magalia,vault,TRUE,FALSE,NA,1501,25.43,USC00042402,826,20.05
-121.467,40.028,PHLB,Philbrook - Feather River,UTIL,NA,NA,NA,NA,NH ND NS,CA,NE,Paradise,NA,NA,NA,FALSE,1695,32.67,USC00042402,826,21.26
-120.257,39.435,SAGC,Sagehen Creek,NF,530-587-3558/530-265-4531,NA,NA,11,NH ND VT NW NS NR N$,CA,NW,Truckee,vault,FALSE,FALSE,FALSE,1992,13.52,USS0020K04S,2134,3.29
-120.121,39.323,ALPM,Alpine Meadows,COE,530-587-8113,NA,NA,NA,NH ND VT NS NR,CA,E,Truckee,vault,NA,FALSE,FALSE,1781,5.31,USC00049040,1798,2.14
-120.121,39.323,MARC,Martis Creek Lake,NA,NA,NA,NA,NA,30ft VT DW,CA,E,Truckee,vault,TRUE,NA,NA,1776,5.31,USC00049040,1798,2.14
-121.024,39.89,DEAN,Deanes Valley,NF,530-283-0555/530-283-2050,mid apr-mid sep,NA,7,NH ND 24ft VT NW NS NR N$,CA,SW,Quincy,vault,FALSE,FALSE,FALSE,1338,8.37,USC00047195,1042,8.35
-120.491,39.616,YUBA,Yuba Pass,NF,530-994-3401/530-265-4531,early jun-mid oct,NA,20,NH ND 35ft VT DW NS RS,CA,W,Sierraville,vault,TRUE,TRUE,FALSE,2062,10.94,USC00048218,1516,10.96
-119.468,37.361,GAGG,Gaggs Camp,NF,559-877-2218/559-297-0706,NA,NA,12,NH ND 16ft VT NW NS NR,CA,E,Oakhurst,vault,FALSE,FALSE,FALSE,1800,16.42,USC00046252,806,14.7
-122.204,40.156,SYCG,Sycamore Grove,NF,530-934-1250/530-934-3316,all year,NA,30,E ND 40ft DW SH RS,CA,SE,Red Bluff,NA,TRUE,TRUE,TRUE,NA,3.7,USW00024216,108,4.25
-122.829,40.141,TOMH,Tomhead Saddle,NF,530-628-5227/530-226-2500,NA,NA,17,NH ND VT NW NS NR,CA,NA,NA,vault,FALSE,FALSE,FALSE,1733,NA,USW00024216,108,49.05
-120.171,39.384,LAKD,Lakeside,NF,530-587-3558/530-265-4531,mid may-late sep,NA,40,NH ND 35ft VT DW NS RS,CA,N,Truckee,vault,TRUE,TRUE,FALSE,1752,6.28,USC00040931,1699,6.69
-120.16,39.378,PROS,Prosser,NF,530-587-3558/530-265-4531,mid may-late sep,NA,29,NH ND 32ft VT DW NS RS,CA,N,Truckee,vault,TRUE,TRUE,FALSE,1770,5.95,USC00040931,1699,5.84
-120.702,39.757,PLUE,Plumas - Eureka State Park,SP,530-836-2380,mid may-late dec,Tent only,64,NH DP 30ft FT DW SH RS,CA,W,Blairsden,flush,TRUE,TRUE,TRUE,1691,7.72,USC00047085,1478,20.43
-119.512,37.152,SMAL,Smalley Cove,NF,559-877-2218,NA,NA,NA,NH ND 30ft NS L$,CA,N,Auberry,NA,NA,NA,FALSE,NA,8.21,USC00040379,637,6.67
-121.559,40.078,BUTM,Butte Meadows,NF,530-258-2141/530-257-2151,NA,NA,13,NH ND 30ft VT DW NS NR,CA,SW,Chester,vault,TRUE,FALSE,FALSE,1330,37.66,USC00042402,826,23.33
-119.476,38.364,SONB,Sonora Bridge,NF,760-932-7070/775-331-6444,NA,NA,23,NH ND 40ft VT DW NS NR,CA,S,Walker,vault,TRUE,FALSE,FALSE,2045,16.74,USS0019L42S,2839,6.87
-121.586,40.088,SOD3,Soda Springs,NA,NA,NA,NA,NA,NH ND NS,CA,N,Forest Ranch,NA,NA,NA,FALSE,1140,25.11,USC00042402,826,24.11
-121.135,39.959,SILV,Silver Lake (Family ),NF,530-283-0555/530-283-2050,NA,NA,7,NH ND VT NW NS RS,CA,W,Quincey,vault,FALSE,TRUE,FALSE,1771,16.25,USC00047195,1042,16.21
-119.449,38.3,OBSI,Obsidian,NF,760-932-7070/775-331-6444,early jun-late sep,NA,18,NH ND 30ft VT NW NS RS,CA,S,Walker,vault,FALSE,TRUE,FALSE,2346,23.98,USS0019L08S,2194,8.83
-119.409,37.502,UPPC,Upper Chiquito,NF,559-877-2218/559-297-0706,NA,NA,11,NH ND 20ft VT NW NS NR N$,CA,NE,Oakhurst,vault,FALSE,FALSE,FALSE,2138,28.81,USC00048380,1538,19.85
-120.315,39.543,COLD,Cold Creek,NF,530-994-3401/530-265-4531,mid apr-mid oct,NA,11,NH ND 20ft VT DW NS RS,CA,SE,Sierraville,vault,TRUE,TRUE,FALSE,1756,6.92,USC00048218,1516,6.55
-120.719,35.777,CAMR,Camp Roberts Military,MIL,805-238-8312,NA,military only - do not use our lat/lon - contact them for directions and info,NA,RS,CA,NW,San Miguel,NA,NA,TRUE,NA,NA,3.54,USW00093209,247,14.46
-120.244,39.492,UPPL,Upper Little Truckee,NF,530-994-3401/530-265-4531,mid apr-mid oct,NA,26,NH ND 35ft VT DW NS RS,CA,SE,Sierraville,vault,TRUE,TRUE,FALSE,1896,15.13,USS0020K03S,1968,3.1
-120.236,39.486,LOWT,Lower Little Truckee,NF,530-994-3401/530-265-4531,mid apr-mid oct,NA,15,NH ND 25ft VT DW NS RS,CA,SE,Sierraville,vault,TRUE,TRUE,FALSE,1874,16.09,USS0020K03S,1968,3.81
-120.317,39.549,COTW,Cottonwood,NF,530-994-3401/530-265-4531,NA,NA,48,NH ND 25ft VT DW NS NR,CA,SE,Sierraville,vault,TRUE,FALSE,FALSE,1726,6.28,USC00048218,1516,5.98
-119.44,37.286,WHIF,Whisky Falls,NF,559-877-2218/559-297-0706,NA,NA,18,NH VT NW NR,CA,NE,North Fork,vault,FALSE,FALSE,NA,1789,8.69,USC00046252,806,8.55
-119.456,38.394,CHRF,Chris Flat,NF,760-932-7070/775-331-6444,NA,NA,15,NH ND 35ft VT DW NS NR,CA,S,Walker,vault,TRUE,FALSE,FALSE,2087,13.52,USS0019L42S,2839,7.37
-121.121,35.583,SANS,San Simeon State Park,SP,805-927-2020,mid may-late dec,NA,115,NH DP 35ft FT DW SH RS,CA,NW,Cambria,flush,TRUE,TRUE,TRUE,NA,4.18,USC00043882,465,12.02
-119.359,37.871,TUOL,Tuolumne Meadows - Yosemite National Park,NP,877-444-6777,early jul-late sep,NA,304,NH DP 35ft FT DW NS RS PA,CA,SW,Lee Vining,flush,TRUE,TRUE,FALSE,2641,23.01,USC00049063,2650,1.5
-121.223,40.02,GANS,Gansner Bar,NF,530-283-0555/530-283-2050,mid may-mid sep,NA,14,NH ND 32ft FT DW NS NR,CA,W,Quincy,flush,TRUE,FALSE,FALSE,723,25.27,USC00041497,1390,20.27
-119.452,38.424,BOOT,Bootleg,NF,760-932-7070/775-331-6444,NA,NA,63,NH ND 45ft FT DW NS NR,CA,S,Coleville,flush,TRUE,FALSE,FALSE,2142,16.58,USS0019L17S,2814,7.38
-120.104,39.395,BOCA,Boca,NF,530-587-3558/530-265-4531,mid may-late sep,NA,20,NH ND 35ft VT DW NS RS,CA,NE,Truckee,vault,TRUE,TRUE,FALSE,1717,10.14,USC00040931,1699,1.14
-121.497,40.103,CHER,Cherry Hill,NF,530-258-2141/530-257-2151,NA,NA,26,NH ND 30ft VT DW NS NR,CA,SW,Chester,vault,TRUE,FALSE,FALSE,1468,31.86,USC00042402,826,27.46
-119.384,37.413,LOWC,Lower Chiquito,NF,559-877-2218/559-297-0706,NA,NA,9,NH ND 25ft VT NW NS NR,CA,NE,Fresno,vault,FALSE,FALSE,FALSE,1494,81.75,USC00046252,806,22.89
-119.389,37.381,SOD1,Soda Springs,NF,559-877-2218/559-297-0706,NA,NA,22,NH ND 50ft VT NW NS NR,CA,NE,North Fork,vault,FALSE,FALSE,FALSE,1360,19.96,USC00046252,806,19.62
-119.454,37.145,REDI,Redinger,NF,NA,NA,no facilities,5,NH ND 25ft VT NW NS NR N$,CA,NE,Fresno,vault,FALSE,FALSE,FALSE,NA,52.63,USC00040379,637,7.88
-121.22,40.04,NORM,North Fork,NF,530-283-0555/530-283-2050,NA,NA,20,NH DP 32ft NS NR,CA,NW,Quincy,NA,NA,FALSE,FALSE,746,25.91,USC00041497,1390,18.33
-121.218,40.046,QUEE,Queen Lily,NF,530-283-0555/530-283-2050,NA,NA,12,NH ND 16ft VT DW NS NR,CA,NW,Quincy,vault,TRUE,FALSE,FALSE,754,26.07,USC00041497,1390,17.7
-121.015,39.975,SNAK,Snake Lake (Family ),NF,530-283-0555/530-283-2050,NA,NA,7,NH ND VT NW NS NR N$,CA,NW,Quincy,vault,FALSE,FALSE,FALSE,1239,7.24,USC00047195,1042,7.17
-120.086,39.42,BOCR,Boca Rest,NF,530-587-3558/530-265-4531,mid may-late sep,NA,29,NH ND 35ft VT NW NS RS,CA,NE,Truckee,vault,FALSE,TRUE,FALSE,1715,13.2,USC00040931,1699,3.55
-119.522,38.696,TOPA,Topaz Lake,CP,775-266-3343,NA,NA,70,WE DP 35ft FTVT DW SH,NV,NA,NA,flush_and_vault,TRUE,NA,TRUE,1533,NA,USS0019L40S,2533,8.18
-120.131,39.464,LOGG,Logger,NF,530-587-3558/530-265-4531,mid may-late sep,NA,252,NH DP 50ft VT DW NS RS,CA,N,Truckee,vault,TRUE,TRUE,FALSE,1839,15.77,USC00040931,1699,8.97
-119.362,37.373,PLAC,Placer,NF,559-877-2218/559-297-0706,NA,NA,7,NH ND 30ft VT NW NS NR,CA,NE,Fresno,vault,FALSE,FALSE,FALSE,1254,78.54,USC00046252,806,20.34
-120.235,39.557,BEAL,Bear Valley,NF,530-994-3401/530-265-4531,NA,NA,31,NH VT DW NR,CA,E,Sierraville,vault,TRUE,FALSE,NA,2025,11.91,USS0020K03S,1968,8.38
-120.089,39.438,BOYI,Boyington Mill,NF,530-587-3558/530-265-4531,mid may-late sep,NA,13,NH ND 35ft VT NW NS RS,CA,NE,Truckee,vault,FALSE,TRUE,FALSE,1724,14.64,USC00040931,1699,5.5
-121.712,40.184,BLAC,Black Rock,NF,530-258-2141/530-257-2151,NA,NA,5,PT NW NR,CA,NA,NA,pit,FALSE,FALSE,NA,662,NA,USC00045679,1486,19.98
-119.348,38.237,BUCE,Buckeye,NF,760-932-7070/775-331-6444,NA,NA,71,NH ND 45ft VT DW NS NR,CA,W,Bridgeport,vault,TRUE,FALSE,FALSE,2121,10.46,USC00041072,1972,10.7
-120.075,39.429,BOCS,Boca Springs,NF,530-587-3558/530-265-4531,mid may-late sep,NA,30,NH ND NS RS,CA,NE,Truckee,NA,NA,TRUE,FALSE,1812,14.64,USC00040931,1699,4.76
-119.352,37.365,SWEE,Sweetwater,NF,559-877-2218/559-297-0706,mid may-late sep,NA,10,NH ND 16ft VT NW NS RS,CA,NE,North Fork,vault,FALSE,TRUE,FALSE,1190,20.44,USC00046252,806,20.27
-121.074,40.018,HALL,Hallsted,NF,530-283-0555/530-283-2050,early jun-late aug,NA,20,NH ND 22ft VT DW NS RS PA,CA,NW,Quincy,vault,TRUE,TRUE,FALSE,858,14,USC00047195,1042,14.08
-119.336,37.4,LITJ,Little Jackass,NF,559-877-2218/559-297-0706,NA,NA,6,NH ND 20ft VT NW NS NR N$,CA,NA,NA,vault,FALSE,FALSE,FALSE,1507,NA,USC00046252,806,24.11
-119.323,38.17,LOWL,Lower Twin Lake,NF,760-932-7070/775-331-6444,mid may-mid sep,NA,17,NH ND 40ft FT DW NS RS,CA,SW,Bridgeport,flush,TRUE,TRUE,FALSE,2205,12.39,USC00041072,1972,12.75
-119.361,37.292,ROCC,Rock Creek,NF,559-877-2218/559-297-0706,mid may-late sep,NA,28,NH ND 45ft VT DW NS RS,CA,NE,North Fork,vault,TRUE,TRUE,FALSE,1343,14.81,USC00046252,806,14.74
-119.322,38.179,PAHA,Paha,NF,760-932-7070/775-331-6444,mid may-mid sep,NA,26,NH ND 40ft FT DW NS RS,CA,SW,Bridgeport,flush,TRUE,TRUE,FALSE,2150,11.75,USC00041072,1972,11.95
-119.323,38.185,ROBC,Robinson Creek,NF,760-932-7070/775-331-6444,mid may-mid oct,NA,60,NH ND 45ft FTVT DW NS RS,CA,SW,Bridgeport,flush_and_vault,TRUE,TRUE,FALSE,2151,11.27,USC00041072,1972,11.54
-123.793,40.018,RICH,Richardson Grove State Park,SP,707-247-3318,mid may-late dec,3 campgrounds,NA,NH RS,CA,S,Garberville,NA,NA,TRUE,NA,NA,9.17,USC00043161,38,56.58
-119.321,38.2,HONE,Honeymoon,NF,760-932-7070/775-331-6444,mid may-mid oct,NA,47,NH ND 35ft VT DW NS RS,CA,SW,Bridgeport,vault,TRUE,TRUE,FALSE,2114,9.98,USC00041072,1972,10.3
-119.337,37.344,MAMM,Mammoth Pool,NF,559-877-2218/559-297-0706,mid may-late sep,NA,47,NH ND 40ft VT DW NS RS,CA,NE,North Fork,vault,TRUE,TRUE,FALSE,1113,19.96,USC00046252,806,19.67
-119.353,37.26,FISH,Fish Creek,NF,559-877-2218/559-297-0706,mid may-mid sep,NA,5,NH ND 20ft VT NW NS NR,CA,NE,Auberry,vault,FALSE,FALSE,FALSE,1425,23.17,USC00046252,806,14.23
-119.271,37.965,SADB,Saddlebag Lake,NF,760-647-3045/760-873-2400,NA,NA,20,NH ND 16ft VT NW NS NR,CA,W,Lee Vining,vault,FALSE,FALSE,FALSE,3107,13.2,USC00049063,2650,11.68
-119.28,37.529,CLOV,Clover Meadow,NF,559-877-2218/559-297-0706,NA,NA,7,NH ND 16ft VT DW NS NR N$,CA,NA,NA,vault,TRUE,FALSE,FALSE,2153,NA,USC00048380,1538,31.27
-119.278,38.11,GREK,Green Creek,NF,760-932-7070/775-331-6444,NA,NA,15,NH ND 22ft VT DW NS NR,CA,S,Bridgeport,vault,TRUE,FALSE,FALSE,2553,16.74,USS0019L13S,2879,6.12
-121.532,40.188,POTA,Potato Patch,NF,530-258-2141/530-257-2151,NA,NA,30,NH ND 27ft VT DW NS NR,CA,SW,Chester,vault,TRUE,FALSE,FALSE,1076,28.65,USC00045679,1486,18.71
-119.892,39.313,MOUN,Mount Rose,NF,775-882-2766/775-331-6444,early jul-late aug,NA,24,NH ND 16ft FT DW NS RS,NV,S,Reno,flush,TRUE,TRUE,FALSE,2721,24.94,USS0019K07S,2682,0.8
-119.255,37.928,TIOG,Tioga Lake,NF,760-647-3045/760-873-2400,NA,NA,13,NH ND 16ft VT NW NS NR,CA,W,Lee Vining,vault,FALSE,FALSE,FALSE,2951,12.39,USC00049063,2650,9.64
-119.27,37.542,GRAN,Granite Creek,NF,559-877-2218/559-297-0706,NA,NA,20,NH ND VT NW NS NR N$,CA,NA,NA,vault,FALSE,FALSE,FALSE,2128,NA,USC00048380,1538,32.27
-119.251,37.938,JUNT,Junction,NF,760-647-3045/760-873-2400,NA,NA,13,NH ND 20ft VT NW NS NR,CA,W,Lee Vining,vault,FALSE,FALSE,FALSE,2909,11.75,USC00049063,2650,10.6
-119.257,38.052,TRUM,Trumbull Lake,NF,760-932-7070/775-331-6444,early jul-mid sep,NA,59,NH ND 45ft VT DW NS RS,CA,S,Bridgeport,vault,TRUE,TRUE,FALSE,3006,22.85,USS0019L13S,2879,3.1
-119.244,37.938,ELLE,Ellery,NF,760-647-3045/760-873-2400,NA,NA,12,NH ND 26ft VT DW NS NR,CA,W,Lee Vining,vault,TRUE,FALSE,FALSE,2908,11.1,USC00049063,2650,11.08
-123.785,40.061,BENB,Benbow Lake State Rec Area,SRA,707-923-3238,mid may-late dec,NA,75,NH DP 30ft FT DW SH RS,CA,S,Garberville,flush,TRUE,TRUE,TRUE,NA,4.51,USC00048045,42,54.14
-119.899,36.262,LEMO,Lemoore Naval Air Station Military,MIL,559-998-0837,NA,military only - do not use our lat/lon - contact them for directions and info,NA,RS,CA,SW,Lemoore,NA,NA,TRUE,NA,NA,11.27,USW00023110,71,9.14
-120.966,40.03,SPAN,Spanish Creek (Family ),NF,530-283-0555/530-283-2050,early jun-late aug,NA,21,NH ND VT DW NS RS PA,CA,N,Quincy,vault,TRUE,TRUE,FALSE,973,10.46,USC00047195,1042,10.48
-121.495,40.21,ALDE,Alder Creek,NF,530-258-2141/530-257-2151,NA,NA,5,NH ND VT NW NS NR,CA,NA,NA,vault,FALSE,FALSE,FALSE,1188,NA,USC00045679,1486,17.94
-119.833,39.305,DAVI,Davis Creek,CP,775-849-0684,NA,NA,63,NH DP 40ft FTVT DW SH L$,NV,N,Carson City,flush_and_vault,TRUE,NA,TRUE,1588,16.58,USS0019K07S,2682,5.19
-119.763,39.241,WASH,Washoe Lake State Rec Area,SP,775-687-4319,all year,NA,49,NH DP 45ft FT DW SH NR,NV,N,Carson City,flush,TRUE,FALSE,TRUE,1538,8.69,USC00268761,1932,12.71
-119.202,37.945,BIGN,Big Bend,NF,760-647-3045/760-873-2400,NA,NA,17,NH ND 30ft VT DW NS NR,CA,W,Lee Vining,vault,TRUE,FALSE,FALSE,2367,7.4,USC00044881,2072,7.38
-119.207,38.034,LUND,Lundy Lake Park,CP,760-932-5231,NA,NA,50,NH ND 24ft PT NW NS L$,CA,NW,Lee Vining,pit,FALSE,NA,FALSE,2332,11.43,USS0019L13S,2879,4.48
-124.003,40.018,KINR,King Range Conservation Area,NA,NA,NA,NA,NA,NA,CA,W,Whitethorn,NA,NA,NA,NA,588,5.15,USC00048045,42,52.35
-124.003,40.018,WAIL,Wailaki,BLM,NA,NA,NA,13,NH ND 25ft VT DW NS NR,CA,SW,Redway,vault,TRUE,FALSE,FALSE,581,18.99,USC00048045,42,52.35
-121.166,40.145,COOL,Cool Springs,UTIL,NA,NA,NA,33,NH ND NS,CA,S,Almanor,NA,NA,NA,FALSE,1274,8.05,USC00041497,1390,7.18
-119.243,37.345,WESK,West Kaiser,NF,559-855-5355/559-297-0706,NA,NA,10,NH ND 25ft VT NW NS NR N$,CA,N,Shaver Lake,vault,FALSE,FALSE,FALSE,1707,27.52,USC00046252,806,26.73
-119.31,37.113,DORA,Dorabelle,NF,559-855-5355/559-297-0706,mid may-late oct,NA,71,NH ND 40ft VT DW NS RS PA N$,CA,NE,Shaver Lake,vault,TRUE,TRUE,FALSE,1675,1.29,USC00040379,637,18.18
-124.006,40.021,NADE,Nadelos,BLM,NA,NA,NA,8,NH ND VT DW NS NR L$,CA,W,Whitethorn,vault,TRUE,FALSE,FALSE,589,5.31,USC00048045,42,51.98
-119.306,37.122,CAME,Camp Edison,UTIL,559-841-3134,NA,NA,252,E DP FT DW SH,CA,NE,Shaver Lake,flush,TRUE,NA,TRUE,1690,2.25,USC00040379,637,18.68
-119.188,37.939,ASPN,Aspen,NF,760-647-3045/760-873-2400,NA,NA,52,40ft PT DW NR,CA,W,Lee Vining,pit,TRUE,FALSE,NA,2294,6.28,USC00044881,2072,6.34
-120.066,39.565,DOGV,Dog Valley,NF,NA,NA,NA,8,NH ND VT NW NS NR,CA,NW,Verdi,vault,FALSE,FALSE,FALSE,1936,8.37,USC00049298,1655,5.89
-119.34,38.621,DESE,Desert Creek,NF,760-932-7070/775-331-6444,NA,NA,20,NR,NV,SE,Gardnerville,NA,NA,FALSE,NA,1928,50.21,USS0019L17S,2814,20.26
-121.187,40.168,POND,Ponderosa Flat,CP,NA,NA,NA,63,NH ND VT DW NS,CA,S,Chester,vault,TRUE,NA,FALSE,1272,15.77,USC00041497,1390,8.39
-119.169,37.93,BOUL,Boulder,NF,760-647-3045/760-873-2400,NA,NA,10,30ft NW NR,CA,SW,Lee Vining,NA,FALSE,FALSE,NA,2264,5.31,USC00044881,2072,5.27
-120.073,39.589,LOOK,Lookout,NF,775-882-2766/775-331-6444,NA,NA,30,22ft VT DW NR,CA,W,Reno,vault,TRUE,FALSE,NA,2059,23.17,USC00049298,1655,8.49
-121.448,40.248,ELAM,Elam,NF,530-258-2141/530-257-2151,NA,NA,11,NH ND 30ft VT DW NS NR,CA,W,Chester,vault,TRUE,FALSE,FALSE,1358,19.47,USC00045679,1486,17.49
-119.158,37.928,LOWV,Lower Lee Vining,NF,760-647-3045/760-873-2400,NA,NA,60,NH ND 40ft PT NW NS NR,CA,SW,Lee Vining,pit,FALSE,FALSE,FALSE,2399,4.67,USC00044881,2072,4.65
-119.278,37.094,SWAN,Swanson,NF,559-855-5355/559-297-0706,NA,NA,9,NH ND 40ft VT NW NS NR,CA,E,Shaver Lake,vault,FALSE,FALSE,FALSE,1754,3.7,USC00040379,637,20.88
-121.273,40.213,SOLD,Soldier Meadows,NF,530-258-2141/530-257-2151,NA,NA,10,NH ND 45ft VT NW NS NR,CA,S,Chester,vault,FALSE,FALSE,FALSE,1454,10.94,USC00041700,1381,10.36
-119.227,37.239,BILU,Billy Creek - Upper,NF,559-855-5355/559-297-0706,NA,NA,48,NH ND NR,CA,W,Lakeshore,NA,NA,FALSE,NA,2164,4.83,USC00046252,806,25.1
-119.227,37.238,BILL,Billy Creek - Lower,NF,559-855-5355/559-297-0706,NA,NA,11,NH ND NS NR,CA,W,Lakeshore,NA,NA,FALSE,FALSE,2137,4.99,USC00046252,806,25.09
-123.017,40.332,NORB,North Fork Beegum Creek F,NF,530-628-5227/530-226-2500,NA,NA,6,NH ND NS NR,CA,W,Platina,NA,NA,FALSE,FALSE,945,10.78,USC00049490,627,45.41
-119.144,37.935,CATT,Cattleguard,NF,760-647-3045/760-873-2400,NA,NA,15,30ft NR,CA,SW,Lee Vining,NA,NA,FALSE,NA,2215,3.22,USC00044881,2072,3.24
-120.474,39.887,GRIZ,Grizzly,NF,530-836-2575/530-283-2050,mid may-late sep,NA,55,NH DP 32ft DW NS RS PA,CA,N,Portola,NA,TRUE,TRUE,FALSE,1792,8.53,USC00047085,1478,9.07
-120.479,39.89,GRAS,Grasshopper Flat Family .,NF,530-836-2575/530-283-2050,mid may-late sep,NA,70,NH ND 32ft VT DW NS RS PA,CA,N,Portola,vault,TRUE,TRUE,FALSE,1772,8.85,USC00047085,1478,9.42
-122.959,40.352,BASG,Basin Gulch,NF,530-628-5227/530-226-2500,NA,NA,19,NH ND 20ft VT NW NS NR,CA,W,Platina,vault,FALSE,FALSE,FALSE,809,5.47,USC00049490,627,42.75
-119.126,37.783,SIL4,Silver Lake - June Lake,NF,760-647-3045/760-873-2400,early may-mid nov,NA,63,NH ND 42ft FT DW NS RS PA,CA,W,June Lake,flush,TRUE,TRUE,FALSE,2205,4.51,USC00044881,2072,19.29
-120.829,40.075,TAYL,Taylorsville County Park,CP,530-394-0160,NA,NA,200,E DP FT DW SH,CA,E,Taylorsville,flush,TRUE,NA,TRUE,1079,0.97,USC00047195,1042,18.39
-123.496,40.251,WATT,Watts Lake,NF,707-574-6233/707-442-1721,NA,NA,12,NR,CA,S,Mad River,NA,NA,FALSE,NA,1536,22.37,USC00048045,42,57.68
-119.363,36.822,CHOI,Choinumni,CP,559-488-3004,NA,NA,36,NH DP FT DW NS L$,CA,NE,Piedra,flush,TRUE,NA,FALSE,NA,2.09,USC00040449,529,26.34
-121.561,40.31,HOLE,Hole In The Ground,NF,530-258-2141/530-257-2151,NA,NA,13,NH ND 25ft VT DW NS NR,CA,SE,Mineral,vault,TRUE,FALSE,FALSE,1328,5.15,USC00045679,1486,5.71
-121.105,40.19,FEAT,Feather River/Rocky Point - Lake Almanor,CP,NA,NA,NA,131,NH DP VT DW NS NR,CA,NA,Canyondam,vault,TRUE,FALSE,FALSE,NA,NA,USC00041497,1390,2.57
-119.112,37.804,AERI,Aerie Crag RV Camp,NF,760-647-3045/760-873-2400,NA,no tents,15,NH ND FT NS NR,CA,NW,June Lake,flush,NA,FALSE,FALSE,2197,4.18,USC00044881,2072,16.96
-120.503,39.93,LIGH,Lightning Tree Family .,NF,530-836-2575/530-283-2050,mid may-late sep,NA,40,NH DP VT DW NS RS PA,CA,N,Portola,vault,TRUE,TRUE,FALSE,1784,13.68,USC00047085,1478,14.1
-121.1,40.191,ROCP,Rocky Point - Feather River,UTIL,916-386-5164,NA,NA,131,NH DP NS,CA,NW,Canyondam,NA,NA,NA,FALSE,1374,3.22,USC00041497,1390,2.46
-121.177,40.217,ALMA,Almanor,NF,530-258-2141/530-257-2151,early may-late sep,NA,103,NH DP 28ft VT DW NS RS,CA,SE,Chester,vault,TRUE,TRUE,FALSE,1412,10.94,USC00041497,1390,9.12
-120.423,39.891,CROC,Crocker Family .,NF,530-836-2575/530-283-2050,NA,NA,10,NH ND 32ft VT NW NS NR N$,CA,NE,Portola,vault,FALSE,FALSE,FALSE,1764,9.82,USC00047085,1478,10.4
-119.182,37.251,CATA,Catavee,NF,559-855-5355/559-297-0706,early jun-late aug,NA,30,NH ND 42ft FT DW NS RS PA,CA,W,Lakeshore,flush,TRUE,TRUE,FALSE,2153,0.64,USC00046252,806,29.15
-123.647,40.226,AIKE,Aikens Creek,NF,530-627-3291/707-442-1721,NA,NA,15,NH DP VT DW NS NR,CA,NA,NA,vault,TRUE,FALSE,FALSE,NA,NA,USC00048045,42,48.16
-119.177,37.253,KINN,Kinnikinnick,NF,559-855-5355/559-297-0706,mid may-mid sep,NA,35,NH ND 42ft VT DW NS RS PA,CA,W,Lakeshore,vault,TRUE,TRUE,FALSE,2159,0.16,USC00046252,806,29.6
-119.155,37.335,SAMP,Sample Meadow,NF,559-855-5355/559-297-0706,NA,NA,13,NH ND VT NW NS NR N$,CA,N,Lakeshore,vault,FALSE,FALSE,FALSE,2399,9.17,USC00046252,806,33.44
-119.176,37.252,DEEC,Deer Creek,NF,559-855-5355/559-297-0706,early jun-late aug,NA,37,NH ND 35ft FT DW NS RS PA,CA,NE,Clovis,flush,TRUE,TRUE,FALSE,2140,66.63,USC00046252,806,29.69
-119.32,36.867,ISLA,Island Park,NA,NA,NA,NA,NA,WES DP DW SH RS,CA,E,Fresno,NA,TRUE,TRUE,TRUE,NA,42.49,USC00040449,529,21.18
-119.338,36.829,PINF,Pine Flat Rec Area,CP,559-488-3004,NA,NA,52,FT DW,CA,E,Fresno,flush,TRUE,NA,NA,NA,39.75,USC00040449,529,23.98
-124.058,40.083,TOLK,Tolkan,BLM,NA,NA,NA,5,NH ND 25ft VT NW NS NR L$,CA,SW,Etterburg,vault,FALSE,FALSE,FALSE,576,8.05,USC00048045,42,44.6
-119.241,37.038,BRET,Bretz,NF,559-855-5355/559-297-0706,NA,NA,12,NH ND VT DW NS NR,CA,SE,Shaver Lake,vault,TRUE,FALSE,FALSE,1016,9.98,USC00040449,529,19.73
-119.17,37.252,COLL,College,NF,559-855-5355/559-297-0706,early jun-late aug,NA,12,NH ND 27ft FTVT DW NS RS PA,CA,E,Lakeshore,flush_and_vault,TRUE,TRUE,FALSE,2138,0.48,USC00046252,806,30.22
-120.955,40.157,GREN,Greenville Community Campground,NF,530-283-0555/530-283-2050,NA,NA,20,NH VT DW NS NR,CA,N,Greenville,vault,TRUE,FALSE,FALSE,1121,1.93,USC00041497,1390,11.48
-123.361,40.313,HOBA,Hobart Creek - Ruth Lake,CP,707-574-6196,NA,NA,NA,DP DW SH,CA,SE,Mad River,NA,TRUE,NA,TRUE,814,19.63,USC00040738,382,49.23
-119.291,36.904,TRIM,Trimmer Rec Area,COE,NA,NA,unknown facil,NA,NH NR,CA,NE,Sanger,NA,NA,FALSE,NA,NA,32.03,USC00040449,529,18.07
-119.09,37.682,AGNE,Agnew Meadows,NF,760-924-5500/760-873-2400,NA,NA,21,NH ND 30ft VT DW NS NR,CA,W,Mammoth Lakes,vault,TRUE,FALSE,FALSE,1494,11.1,USC00044881,2072,30.6
-121.627,40.348,BATT,Battle Creek,NF,530-258-2141/530-257-2151,NA,NA,50,NH ND 30ft VT DW NS NR,CA,W,Mineral,vault,TRUE,FALSE,FALSE,1489,2.74,USC00045679,1486,1.53
-119.161,37.25,RANC,Rancheria,NF,559-855-5355/559-297-0706,all year,NA,153,NH ND 29ft FTVT DW NS RS,CA,E,Lakeshore,flush_and_vault,TRUE,TRUE,FALSE,2161,1.29,USC00046252,806,31
-119.083,37.771,REVE,Reversed Creek,NF,760-647-3045/760-873-2400,mid may-late oct,NA,16,NH ND 40ft FT DW NS RS,CA,SW,June Lake,flush,TRUE,TRUE,FALSE,2349,1.13,USC00044881,2072,20.86
-119.082,37.773,GULL,Gull Lake,NF,760-647-3045/760-873-2400,NA,NA,11,NH ND 30ft FT DW NS NR,CA,SW,June Lake,flush,TRUE,FALSE,FALSE,2319,0.97,USC00044881,2072,20.65
-121.426,40.309,GURN,Gurnsey Creek,NF,530-258-2141/530-257-2151,mid may-late sep,NA,30,NH ND 25ft VT DW NS RS,CA,W,Chester,vault,TRUE,TRUE,FALSE,1467,16.42,USC00041700,1381,15.64
-123.394,40.314,BOYS,Boy Scout Cove - Ruth Lake,CP,707-574-6196,NA,NA,NA,NH ND NS,CA,SE,Mad River,NA,NA,NA,FALSE,814,17.86,USC00040738,382,49.93
-119.084,37.64,MINA,Minaret Falls,NF,760-924-5500/760-873-2400,NA,NA,26,NH ND 40ft VT DW NS NR,CA,W,Mammoth Lakes,vault,TRUE,FALSE,FALSE,2332,9.82,USC00049063,2650,34.85
-120.883,35.428,MORS,Morro Strand State Beach,SP,805-772-2560,mid may-late dec,NA,76,NH ND 24ft FT DW NS RS,CA,NW,Morro Bay,flush,TRUE,TRUE,FALSE,NA,7.56,USC00047851,94,24.25
-119.075,37.782,JUNE,June Lake,NF,760-647-3045/760-873-2400,early may-late oct,NA,28,NH ND 35ft FT DW NS RS PA,CA,N,June Lake,flush,TRUE,TRUE,FALSE,2331,0.32,USC00044881,2072,19.78
-119.071,37.799,OHRI,Oh Ridge,NF,760-647-3045/760-873-2400,early may-late sep,NA,147,NH ND 35ft FT DW NS RS PA,CA,N,June Lake,flush,TRUE,TRUE,FALSE,2351,2.25,USC00044881,2072,18.01
-119.077,37.653,SOD2,Soda Springs,NF,760-924-5500/760-873-2400,NA,NA,29,NR,CA,W,Mammoth Lakes,NA,NA,FALSE,NA,2357,9.17,USC00044881,2072,33.91
-119.075,37.648,PUMI,Pumice Flat,NF,760-924-5500/760-873-2400,mid jun-mid sep,NA,4,NH ND 35ft FT DW NS NR,CA,W,Mammoth Lakes,flush,TRUE,FALSE,FALSE,2351,9.01,USC00044881,2072,34.49
-119.199,37.082,SUMM,Summit,NF,559-855-5355/559-297-0706,NA,no rvs,5,NH ND NS NR N$,CA,SE,Oakhurst,NA,NA,FALSE,FALSE,2162,48.44,USC00040449,529,21.56
-123.393,40.326,RUTH,Ruth Lake - Ruth Lake,CP,707-574-6196,NA,NA,NA,NA,CA,SE,Mad River,NA,NA,NA,NA,823,16.9,USC00040738,382,48.64
-124.066,40.106,HORN,Horse Mountain,BLM,NA,NA,NA,9,NH ND 25ft NW NS NR L$,CA,SW,Etterburg,NA,FALSE,FALSE,FALSE,527,6.92,USC00048045,42,42
-119.073,37.619,REDS,Reds Meadow,NF,760-924-5500/760-873-2400,NA,NA,56,NH ND FT DW SH NR,CA,W,Mammoth Lakes,flush,TRUE,FALSE,TRUE,3057,9.5,USC00049063,2650,37.26
-119.063,37.654,DEVI,Devils Postpile,NM,760-934-2289,NA,NA,21,NH ND 25ft FT DW NS NR,CA,NA,NA,flush,TRUE,FALSE,FALSE,2763,NA,USC00044881,2072,33.96
-119.587,39.252,DAYT,Dayton State Park,SP,775-684-2770,all year,NA,10,NH DP 20ft FTVT DW NS NR,NV,N,Dayton,flush_and_vault,TRUE,FALSE,FALSE,1321,1.77,USC00268761,1932,8.58
-123.4,40.341,BAIC,Bailey Canyon,NF,707-574-6233/707-442-1721,NA,NA,25,NH ND 22ft VT DW NS NR,CA,SE,Mad River,vault,TRUE,FALSE,FALSE,NA,15.13,USC00040738,382,47.27
-119.116,37.269,BADG,Badger Flat,NF,559-855-5355/559-297-0706,NA,NA,15,NH ND VT NW SH NR,CA,E,Lakeshore,vault,FALSE,FALSE,TRUE,2522,5.47,USC00046252,806,35.16
-123.403,40.343,FIRC,Fir Cove,NF,707-574-6233/707-442-1721,mid may-late sep,NA,19,NH ND 22ft NS RS PA,CA,SE,Mad River,NA,NA,TRUE,FALSE,865,14.81,USC00040738,382,47.15
-123.309,40.366,SCOF,Scott Flat,NF,530-628-5227/530-226-2500,NA,NA,18,15ft VT NW NR,CA,E,Bridgeville,vault,FALSE,FALSE,NA,748,43.13,USC00040738,382,42.47
-119.037,37.772,HART,Hartley Springs,NF,760-647-3045/760-873-2400,NA,NA,20,NH ND 35ft VT NW NS NR N$,CA,NW,Mammoth Lakes,vault,FALSE,FALSE,FALSE,2576,14.81,USC00044881,2072,21.75
-123.314,40.371,HELG,Hell Gate,NF,530-628-5227/530-226-2500,NA,NA,29,NH ND 15ft NS NR,CA,SW,Hayfork,NA,NA,FALSE,FALSE,723,23.17,USC00040738,382,42.02
-119.156,37.071,DINK,Dinkey,NF,559-855-5355/559-297-0706,early jun-late oct,NA,141,NH ND 42ft FTVT DW NS RS PA,CA,S,Dinkey Creek,flush_and_vault,TRUE,TRUE,FALSE,1783,1.77,USC00040449,529,18.94
-123.327,40.377,FORE,Forest Glen,NF,530-628-5227/530-226-2500,NA,swimming hole in river,21,NH ND 15ft VT DW NS NR,CA,SW,Hayfork,vault,TRUE,FALSE,FALSE,770,23.17,USC00040738,382,41.62
-119.067,37.32,PORT,Portal Forebay,NF,559-855-5355/559-297-0706,NA,NA,10,NH ND VT NW NS NR,CA,NE,Lakeshore,vault,FALSE,FALSE,FALSE,2199,12.07,USC00046252,806,40.44
-121.306,40.339,HIGH,High Bridge,NF,530-258-2141/530-257-2151,NA,NA,12,NH ND VT DW NS NR,CA,NW,Chester,vault,TRUE,FALSE,FALSE,1492,7.24,USC00041700,1381,6.72
-119.009,37.721,LOWD,Lower Deadman,NF,760-647-3045/760-873-2400,NA,NA,15,NH ND VT NW NS NR N$,CA,N,Mammoth Lakes,vault,FALSE,FALSE,FALSE,2380,8.69,USC00044881,2072,27.91
-120.741,35.424,CERR,Cerro Alto,NF,805-925-9538/805-961-5778,all year,NA,22,NH ND 25ft VT DW NS RS PA,CA,SW,Atascadero,vault,TRUE,TRUE,FALSE,NA,9.66,USC00047851,94,14.97
-119.01,37.616,TWIN,Twin Lakes,NF,760-924-5500/760-873-2400,early jun-late oct,NA,93,NH ND 40ft FT DW NS RS PA,CA,SW,Mammoth Lakes,flush,TRUE,TRUE,FALSE,2636,4.83,USC00044881,2072,39.02
-119.009,37.602,LAKG,Lake George,NF,760-924-5500/760-873-2400,NA,NA,15,NH ND 20ft FT DW NS NR,CA,SW,Mammoth Lakes,flush,TRUE,FALSE,FALSE,2725,6.12,USC00044881,2072,40.55
